[
  {
    "id": 1,
    "lat": 51.155014,
    "lng": 17.047282,
    "place_id": "ChIJIyhUS8vpD0cRKS7laQz_NtE",
    "address": "ADAMA JERZEGO CZARTORYSKIEGO 57A-57B ŻABKA",
    "kat": "3",
    "end_date": "20/12/2031"
  },
  {
    "id": 2,
    "lat": 51.056784,
    "lng": 17.056433,
    "place_id": "ChIJE6o1--jDD0cRHa4XDWtwa8s",
    "address": "ADAMA KOPYCIŃSKIEGO /1A ŻABKA",
    "kat": "3",
    "end_date": "11/01/2032"
  },
  {
    "id": 3,
    "lat": 51.1133617,
    "lng": 17.0923157,
    "place_id": "ChIJiUkvqiLoD0cRCXP9KHRyeRo",
    "address": "ADAMA MICKIEWICZA 39",
    "kat": "1",
    "end_date": "10/07/2022"
  },
  {
    "id": 4,
    "lat": 51.1132882,
    "lng": 17.0922831,
    "place_id": "ChIJiUkvqiLoD0cRcg-npKWtSN4",
    "address": "ADAMA MICKIEWICZA 39 GRAŻKA",
    "kat": "1",
    "end_date": "08/11/2031"
  },
  {
    "id": 5,
    "lat": 51.1133617,
    "lng": 17.0923157,
    "place_id": "EjBBZGFtYSBNaWNraWV3aWN6YSAzOS8xbCwgNTEtNjIwIFdyb2PFgmF3LCBQb2xhbmQiHhocChYKFAoSCYlJL6oi6A9HEQlz_Sh0cnkaEgIxbA",
    "address": "ADAMA MICKIEWICZA 39/1L",
    "kat": "3",
    "end_date": "28/04/2022"
  },
  {
    "id": 6,
    "lat": 51.11355,
    "lng": 17.09726,
    "place_id": "ChIJK-6bBJbpD0cRp0C_hCRo3gM",
    "address": "ADAMA MICKIEWICZA 65 ŻABKA",
    "kat": "3",
    "end_date": "22/09/2031"
  },
  {
    "id": 7,
    "lat": 51.062579,
    "lng": 17.0823452,
    "place_id": "ChIJ3SoNEtbCD0cR00P7LVxBLIc",
    "address": "AFGAŃSKA 3 BIEDRONKA",
    "kat": "3",
    "end_date": "25/05/2022"
  },
  {
    "id": 8,
    "lat": 51.138236,
    "lng": 17.082759,
    "place_id": "ChIJyRaQQlLoD0cRQTb8HZGZvv8",
    "address": "ALEJA ALEKSANDRA BRUCKNERA 53-53A STACJA PALIW",
    "kat": "3",
    "end_date": "22/09/2022"
  },
  {
    "id": 9,
    "lat": 51.1370356,
    "lng": 16.9287741,
    "place_id": "ChIJbS8TDdfrD0cR5ys-uGcaMmk",
    "address": "ALEJA ARCHITEKTÓW 10A ŻABKA",
    "kat": "3",
    "end_date": "02/11/2030"
  },
  {
    "id": 10,
    "lat": 51.1363362,
    "lng": 16.928386,
    "place_id": "ChIJreB7uJTrD0cRw-RszfLg1vA",
    "address": "ALEJA ARCHITEKTÓW 14D DUŻY BEN",
    "kat": "3",
    "end_date": "04/11/2030"
  },
  {
    "id": 11,
    "lat": 51.1372925,
    "lng": 16.9286617,
    "place_id": "ChIJvTl_b5rqD0cRda96ZiVUFzc",
    "address": "ALEJA ARCHITEKTÓW 8A",
    "kat": "2",
    "end_date": "21/10/2030"
  },
  {
    "id": 12,
    "lat": 51.0835057,
    "lng": 17.0259772,
    "place_id": "ChIJ29wLFFnCD0cRVEfft1nGQH0",
    "address": "ALEJA ARMII KRAJOWEJ 1 STACJA PALIW",
    "kat": "3",
    "end_date": "05/09/2022"
  },
  {
    "id": 13,
    "lat": 51.082531,
    "lng": 17.0420475,
    "place_id": "ChIJJ3kZGfbCD0cRbmFBDndJP_E",
    "address": "ALEJA ARMII KRAJOWEJ 37 BIEDRONKA",
    "kat": "3",
    "end_date": "08/02/2023"
  },
  {
    "id": 14,
    "lat": 51.0829868,
    "lng": 17.0595489,
    "place_id": "ChIJG5YGmO3CD0cRE_QSxq94PwQ",
    "address": "ALEJA ARMII KRAJOWEJ 49",
    "kat": "3",
    "end_date": "26/09/2022"
  },
  {
    "id": 15,
    "lat": 51.0836884,
    "lng": 17.0482162,
    "place_id": "ChIJ6w77FfTCD0cRvqryRyKmlN8",
    "address": "ALEJA ARMII KRAJOWEJ 50",
    "kat": "3",
    "end_date": "15/03/2030"
  },
  {
    "id": 16,
    "lat": 51.0886184,
    "lng": 16.9979038,
    "place_id": "ChIJl4BkOTvCD0cRKZj31JbR1C8",
    "address": "ALEJA GENERAŁA HALLERA 52 CARREFOUR",
    "kat": "3",
    "end_date": "25/08/2022"
  },
  {
    "id": 17,
    "lat": 51.0890888,
    "lng": 16.9994659,
    "place_id": "ChIJmRz-TDvCD0cRYYTjrTzezUU",
    "address": "ALEJA GENERAŁA HALLERA 52 ROSSMANN",
    "kat": "2",
    "end_date": "18/06/2029"
  },
  {
    "id": 18,
    "lat": 51.090292,
    "lng": 16.991579,
    "place_id": "Ei1hbGVqYSBIYWxsZXJhIDExMi8xYSwgNTMtMjAzIFdyb2PFgmF3LCBQb2xhbmQiHhocChYKFAoSCR2bfRAkwg9HEY8djNjK1TsHEgIxYQ",
    "address": "ALEJA GENERAŁA JÓZEFA HALLERA 112 (LOK. 1A)",
    "kat": "1",
    "end_date": "21/03/2029"
  },
  {
    "id": 19,
    "lat": 51.090343,
    "lng": 16.991326,
    "place_id": "ChIJKS4GHSTCD0cRQh28QTbqtYM",
    "address": "ALEJA GENERAŁA JÓZEFA HALLERA 116/1A ŻABKA",
    "kat": "3",
    "end_date": "22/04/2031"
  },
  {
    "id": 20,
    "lat": 51.093283,
    "lng": 16.978835,
    "place_id": "ChIJK4SB-WTBD0cRu7YkYFCO5GY",
    "address": "ALEJA GENERAŁA JÓZEFA HALLERA 200 ŻABKA",
    "kat": "3",
    "end_date": "24/01/2031"
  },
  {
    "id": 21,
    "lat": 51.0882528,
    "lng": 16.9981919,
    "place_id": "ChIJA13LDzLDD0cRClor-tq0WlU",
    "address": "ALEJA GENERAŁA JÓZEFA HALLERA 52 CENTRUM WINA DISTILLERS LIMITED",
    "kat": "3",
    "end_date": "24/03/2029"
  },
  {
    "id": 22,
    "lat": 51.0889865,
    "lng": 16.9992118,
    "place_id": "ChIJ0zNPjxLDD0cRbWppqYCeLw4",
    "address": "ALEJA GENERAŁA JÓZEFA HALLERA 52/9 PRZYSMAKI DOMU WIŚNIOWIECKICH",
    "kat": "3",
    "end_date": "18/02/2030"
  },
  {
    "id": 23,
    "lat": 51.087289,
    "lng": 17.000347,
    "place_id": "ChIJq7WOejvCD0cRbOn-yLQ9V6A",
    "address": "ALEJA GENERAŁA JÓZEFA HALLERA 52/M TUTTI SANTI",
    "kat": "2",
    "end_date": "19/01/2031"
  },
  {
    "id": 24,
    "lat": 51.0898626,
    "lng": 17.0006147,
    "place_id": "ChIJB3U-oDzCD0cRpzy_j5lstp8",
    "address": "ALEJA GENERAŁA JÓZEFA HALLERA 67A",
    "kat": "3",
    "end_date": "29/12/2031"
  },
  {
    "id": 25,
    "lat": 51.089781,
    "lng": 16.994872,
    "place_id": "ChIJT3k97avDD0cRaM7paU2L0B8",
    "address": "ALEJA GENERAŁA JÓZEFA HALLERA 78/1 ŻABKA",
    "kat": "3",
    "end_date": "10/08/2031"
  },
  {
    "id": 26,
    "lat": 51.0626974,
    "lng": 16.9981742,
    "place_id": "ChIJZce7BbjDD0cRjVmPnkd4agQ",
    "address": "ALEJA KARKONOSKA 49",
    "kat": "3",
    "end_date": "31/01/2029"
  },
  {
    "id": 27,
    "lat": 51.0613066,
    "lng": 16.9961735,
    "place_id": "ChIJk6pb2MjDD0cRObwOIICRCSE",
    "address": "ALEJA KARKONOSKA 52",
    "kat": "3",
    "end_date": "11/07/2022"
  },
  {
    "id": 28,
    "lat": 51.0610585,
    "lng": 16.9939203,
    "place_id": "ChIJWy-6CcfDD0cRaK1hsA1n1eg",
    "address": "ALEJA KARKONOSKA 63 ELDORADO",
    "kat": "3",
    "end_date": "05/12/2031"
  },
  {
    "id": 29,
    "lat": 51.1375792,
    "lng": 17.0531421,
    "place_id": "ChIJIcevj7vpD0cR-AunLLT41m8",
    "address": "ALEJA KASPROWICZA 85",
    "kat": "3",
    "end_date": "08/05/2031"
  },
  {
    "id": 30,
    "lat": 51.1378818,
    "lng": 17.0547452,
    "place_id": "ChIJtSmeobvpD0cRZniJdMFD23I",
    "address": "ALEJA KASPROWICZA 93",
    "kat": "3",
    "end_date": "02/10/2022"
  },
  {
    "id": 31,
    "lat": 51.1205389,
    "lng": 17.0780305,
    "place_id": "ChIJT3920DDoD0cR_wd0_pU1jkE",
    "address": "ALEJA KOCHANOWSKIEGO 33 T&J",
    "kat": "3",
    "end_date": "04/08/2022"
  },
  {
    "id": 32,
    "lat": 51.1162337,
    "lng": 17.0737573,
    "place_id": "ChIJT551dXmpFkcR-c4U2LzI4wY",
    "address": "ALEJA KOCHANOWSKIEGO 8A LEWIATAN",
    "kat": "3",
    "end_date": "15/10/2031"
  },
  {
    "id": 33,
    "lat": 51.1319209,
    "lng": 17.0623617,
    "place_id": "ChIJhaF89LbpD0cRdXR3oKFL6-E",
    "address": "ALEJA KROMERA 16-28 STACJA PALIW",
    "kat": "3",
    "end_date": "05/12/2031"
  },
  {
    "id": 34,
    "lat": 51.1315386,
    "lng": 17.064094,
    "place_id": "ChIJITACgbbpD0cRahOqV62K7Dg",
    "address": "ALEJA MARCINA KROMERA 17",
    "kat": "3",
    "end_date": "01/02/2029"
  },
  {
    "id": 35,
    "lat": 51.1353074,
    "lng": 17.0700208,
    "place_id": "ChIJGQ_rrrPpD0cRg94CGgWm1Lk",
    "address": "ALEJA MARCINA KROMERA 57B",
    "kat": "2",
    "end_date": "31/08/2030"
  },
  {
    "id": 36,
    "lat": 51.1312833,
    "lng": 17.0605671,
    "place_id": "ChIJOzpvUrbpD0cRk3NJuQL5YR8",
    "address": "ALEJA MARCINA KROMERA 8-10",
    "kat": "3",
    "end_date": "20/12/2029"
  },
  {
    "id": 37,
    "lat": 51.1174303,
    "lng": 17.0490572,
    "place_id": "ChIJZ7bwidDpD0cR0o_q99iaih0",
    "address": "ALEJA MATEJKI 2C/1 ŻABKA",
    "kat": "3",
    "end_date": "13/07/2030"
  },
  {
    "id": 38,
    "lat": 51.095637,
    "lng": 16.9864491,
    "place_id": "ChIJjVESnorBD0cRCIy14lxP1ag",
    "address": "ALEJA PRACY 1A",
    "kat": "3",
    "end_date": "30/08/2030"
  },
  {
    "id": 39,
    "lat": 51.0934434,
    "lng": 16.986566,
    "place_id": "ChIJV-2TliDCD0cRlg91tonPjX4",
    "address": "ALEJA PRACY 27F",
    "kat": "3",
    "end_date": "10/04/2029"
  },
  {
    "id": 40,
    "lat": 51.147479,
    "lng": 16.841758,
    "place_id": "ChIJz0UpCXuVD0cR-Qa-7z0sozA",
    "address": "ALEJA PREZYDENTA RYSZARDA KACZOROWSKIEGO 101 STACJA PALIW",
    "kat": "3",
    "end_date": "02/01/2030"
  },
  {
    "id": 41,
    "lat": 51.0859869,
    "lng": 17.0123551,
    "place_id": "ChIJ46uE1l7DD0cRlkOBLvT_EH8",
    "address": "ALEJA WIŚNIOWA 1 NR 312",
    "kat": "3",
    "end_date": "07/04/2030"
  },
  {
    "id": 42,
    "lat": 51.0832935,
    "lng": 17.0235812,
    "place_id": "ChIJMxKt40TCD0cR3-u6uKqB4ME",
    "address": "ALEJA WIŚNIOWA 87 STACJA PALIW R 5005",
    "kat": "3",
    "end_date": "29/03/2029"
  },
  {
    "id": 43,
    "lat": 51.0948563,
    "lng": 16.9783576,
    "place_id": "ChIJneRYih_BD0cRJF9m2BKd7IY",
    "address": "ALEKSANDRA OSTROWSKIEGO 1 ŻABKA",
    "kat": "3",
    "end_date": "06/02/2032"
  },
  {
    "id": 44,
    "lat": 51.107536,
    "lng": 17.123134,
    "place_id": "ChIJr_6g8EnnD0cRtD-3qdHTnk4",
    "address": "AMERIGA VESPUCCIEGO 18B ŻABKA",
    "kat": "3",
    "end_date": "03/01/2032"
  },
  {
    "id": 45,
    "lat": 51.129797,
    "lng": 17.046092,
    "place_id": "ChIJR_bvQ_7pD0cRNbn3EXSK0jU",
    "address": "ANTONIEGO SŁONIMSKIEGO 10 ŻABKA",
    "kat": "3",
    "end_date": "08/11/2031"
  },
  {
    "id": 46,
    "lat": 51.12943,
    "lng": 17.04485,
    "place_id": "ChIJySMFksDpD0cR-owUfS_L_8E",
    "address": "ANTONIEGO SŁONIMSKIEGO 3 ŻABKA",
    "kat": "3",
    "end_date": "16/04/2030"
  },
  {
    "id": 47,
    "lat": 51.155196,
    "lng": 16.8995837,
    "place_id": "ChIJa2Ty5srqD0cRJ1pWnY3dKMM",
    "address": "ARBUZOWA 13A/1",
    "kat": "3",
    "end_date": "15/01/2023"
  },
  {
    "id": 48,
    "lat": 51.155283,
    "lng": 16.899579,
    "place_id": "ChIJTdxnQrXrD0cRdcN1UmgOxjc",
    "address": "ARBUZOWA 13B/1B ŻABKA",
    "kat": "3",
    "end_date": "31/08/2029"
  },
  {
    "id": 49,
    "lat": 51.15238,
    "lng": 16.932389,
    "place_id": "ChIJpRKAx-vqD0cRGHcAOQCghiw",
    "address": "AUGUSTOWSKA 70/RESZELSKA 1 LOK. E2/US ŻABKA",
    "kat": "3",
    "end_date": "22/03/2031"
  },
  {
    "id": 50,
    "lat": 51.1079849,
    "lng": 17.1406487,
    "place_id": "ChIJOZAFS-7nD0cRUM2gRIopMCE",
    "address": "BADURY 4 ŻABKA",
    "kat": "3",
    "end_date": "17/03/2030"
  },
  {
    "id": 51,
    "lat": 51.130459,
    "lng": 16.9650049,
    "place_id": "ChIJN_3lrHHqD0cRR3XlydRq7cM",
    "address": "BAJANA 1 DELIKTESY WŁOSKIE (STOISKO NR 54)",
    "kat": "2",
    "end_date": "19/02/2029"
  },
  {
    "id": 52,
    "lat": 51.1218093,
    "lng": 16.9622384,
    "place_id": "ChIJ3_lBzNXBD0cRjIh81J2ewzE",
    "address": "BALONOWA 30 LIDL",
    "kat": "3",
    "end_date": "27/07/2030"
  },
  {
    "id": 53,
    "lat": 51.1384811,
    "lng": 17.0324965,
    "place_id": "ChIJt7AjKZLpD0cRWy2i03Z6rHA",
    "address": "BAŁTYCKA 1 PONIK",
    "kat": "3",
    "end_date": "31/12/2031"
  },
  {
    "id": 54,
    "lat": 51.1392199,
    "lng": 17.032488,
    "place_id": "EidCYcWCdHlja2EgMTcvMSwgNTEtMTA5IFdyb2PFgmF3LCBQb2xhbmQiHRobChYKFAoSCdUoa4-R6Q9HEQpwIO9rIMmyEgEx",
    "address": "BAŁTYCKA 17-21/LOK.1.3 ŻABKA",
    "kat": "3",
    "end_date": "28/12/2030"
  },
  {
    "id": 55,
    "lat": 51.1019799,
    "lng": 17.0275238,
    "place_id": "ChIJ86MPdnLCD0cRBxlK_dkHIHQ",
    "address": "BAŁUCKIEGO 18 NR 39, DELIKATESY CENTRUM BAŁUCKIEGO L.U. NR 1A",
    "kat": "3",
    "end_date": "02/08/2029"
  },
  {
    "id": 56,
    "lat": 51.084098,
    "lng": 17.0463928,
    "place_id": "ChIJIT15NPTCD0cRL_hmLpLgcVI",
    "address": "BARDZKA 1A KAUFLAND",
    "kat": "3",
    "end_date": "10/10/2031"
  },
  {
    "id": 57,
    "lat": 51.0821306,
    "lng": 17.0508335,
    "place_id": "ChIJH6EMX_HCD0cRM3_5hldXm_I",
    "address": "BARDZKA 26",
    "kat": "3",
    "end_date": "22/11/2022"
  },
  {
    "id": 58,
    "lat": 51.0820739,
    "lng": 17.0487937,
    "place_id": "ChIJpyWxXPTCD0cRiFgbmpxMHCs",
    "address": "BARDZKA 3 CARREFOUR",
    "kat": "3",
    "end_date": "09/07/2031"
  },
  {
    "id": 59,
    "lat": 51.0835724,
    "lng": 17.0500411,
    "place_id": "ChIJy-OPCvTCD0cRdzrJBN_x6Kw",
    "address": "BARDZKA 6 STACJA PALIW",
    "kat": "3",
    "end_date": "30/08/2031"
  },
  {
    "id": 60,
    "lat": 51.0581404,
    "lng": 17.017543,
    "place_id": "ChIJ_VGl0aXDD0cRcyqRzvYUTK8",
    "address": "BARTŁOMIEJA STRACHOWSKIEGO 18 BRE! BRE! GALERIA ALKOHOLU",
    "kat": "3",
    "end_date": "04/02/2030"
  },
  {
    "id": 61,
    "lat": 51.0583851,
    "lng": 17.0163688,
    "place_id": "ChIJ4Ugv8O3DD0cR5BV8iIjZo54",
    "address": "BARTŁOMIEJA STRACHOWSKIEGO 22-26 OLIO DELIZIE",
    "kat": "2",
    "end_date": "08/07/2029"
  },
  {
    "id": 62,
    "lat": 51.056714,
    "lng": 17.024366,
    "place_id": "ChIJFVWknafDD0cRcjtvgC2hxrY",
    "address": "BARTŁOMIEJA STRACHOWSKIEGO 2A ŻABKA",
    "kat": "3",
    "end_date": "23/05/2031"
  },
  {
    "id": 63,
    "lat": 51.058703,
    "lng": 17.014804,
    "place_id": "ChIJH3yvQq3DD0cR-2HACDUnb7w",
    "address": "BARTŁOMIEJA STRACHOWSKIEGO 38/U1 ŻABKA",
    "kat": "3",
    "end_date": "06/09/2031"
  },
  {
    "id": 64,
    "lat": 51.1365541,
    "lng": 16.954676,
    "place_id": "ChIJlVyODGPqD0cR5Xmd5MWpdHc",
    "address": "BEDNARSKA 18 OSKAR",
    "kat": "3",
    "end_date": "08/05/2030"
  },
  {
    "id": 65,
    "lat": 51.1123036,
    "lng": 17.0559308,
    "place_id": "ChIJ4apHXtTpD0cRKX2eiR662FY",
    "address": "BENEDYKTA POLAKA 21/1A ŻABKA",
    "kat": "3",
    "end_date": "04/10/2031"
  },
  {
    "id": 66,
    "lat": 51.111095,
    "lng": 17.054644,
    "place_id": "ChIJCbci2trpD0cRw_slMfHh5SM",
    "address": "BENEDYKTA POLAKA 2A ŻABKA",
    "kat": "3",
    "end_date": "01/04/2030"
  },
  {
    "id": 67,
    "lat": 51.1151811,
    "lng": 17.0527876,
    "place_id": "ChIJQcIXRNHpD0cRRhY8OmHg78E",
    "address": "BENEDYKTYŃSKA 15 BIEDRONKA",
    "kat": "3",
    "end_date": "17/12/2030"
  },
  {
    "id": 68,
    "lat": 51.1153809,
    "lng": 17.052382,
    "place_id": "ChIJL44PQ9HpD0cRQ7P-eJ1OPk4",
    "address": "BENEDYKTYŃSKA DZ. NR 16/2, AM-28, OBRĘB PLAC GRUNWALDZKI",
    "kat": "3",
    "end_date": "13/01/2030"
  },
  {
    "id": 69,
    "lat": 51.1407368,
    "lng": 17.0232495,
    "place_id": "ChIJRRDhrY7pD0cR8RskkW20TtI",
    "address": "BEZPIECZNA 19 BIEDRONKA",
    "kat": "3",
    "end_date": "16/12/2022"
  },
  {
    "id": 70,
    "lat": 51.139458,
    "lng": 17.021964,
    "place_id": "ChIJ1YfDCYzpD0cR_5I4-MwzUDY",
    "address": "BEZPIECZNA 28A/LOK. U4 ŻABKA",
    "kat": "3",
    "end_date": "05/02/2023"
  },
  {
    "id": 71,
    "lat": 51.141219,
    "lng": 17.0257,
    "place_id": "ChIJ8WUh7Y7pD0cRBzpKim8drM8",
    "address": "BEZPIECZNA 4A ŻABKA",
    "kat": "3",
    "end_date": "14/10/2030"
  },
  {
    "id": 72,
    "lat": 51.1237865,
    "lng": 16.9931133,
    "place_id": "ChIJmQPOLwTqD0cRwloqaKfkNJc",
    "address": "BIAŁOWIESKA 13A PREMIUM",
    "kat": "3",
    "end_date": "15/04/2030"
  },
  {
    "id": 73,
    "lat": 51.125491,
    "lng": 16.99331,
    "place_id": "ChIJT6uZrAXqD0cRwVuAFWvZ_K4",
    "address": "BIAŁOWIESKA 66A ŻABKA",
    "kat": "3",
    "end_date": "24/10/2029"
  },
  {
    "id": 74,
    "lat": 51.1297872,
    "lng": 16.9902019,
    "place_id": "ChIJfzQ11HnrD0cR60C4y-I_68A",
    "address": "BIAŁOWIESKA 89A ŻABKA",
    "kat": "3",
    "end_date": "27/09/2030"
  },
  {
    "id": 75,
    "lat": 51.14845,
    "lng": 17.116788,
    "place_id": "ChIJxa1xl4zoD0cRzpbAzmCPlCk",
    "address": "BIERUTOWSKA 4-6 LIDL",
    "kat": "3",
    "end_date": "14/12/2022"
  },
  {
    "id": 76,
    "lat": 51.1543412,
    "lng": 17.1451102,
    "place_id": "ChIJKc0CQZnoD0cR_1PUME-DI-c",
    "address": "BIERUTOWSKA 81",
    "kat": "3",
    "end_date": "18/02/2030"
  },
  {
    "id": 77,
    "lat": 51.081767,
    "lng": 16.9898779,
    "place_id": "ChIJdzG3YS7CD0cRTMod5sAT65I",
    "address": "BLACHARSKA 8-10/1A ŻABKA",
    "kat": "3",
    "end_date": "08/11/2030"
  },
  {
    "id": 78,
    "lat": 51.151138,
    "lng": 16.942819,
    "place_id": "ChIJ15uWy9XrD0cRixk-eqhjTkM",
    "address": "BOGATYŃSKA 6/U2 ŻABKA",
    "kat": "3",
    "end_date": "02/01/2030"
  },
  {
    "id": 79,
    "lat": 51.1469275,
    "lng": 16.8906661,
    "place_id": "ChIJe0P03EyVD0cREwZI2sVCta8",
    "address": "BOGUSZOWSKA 38B DINO",
    "kat": "3",
    "end_date": "24/06/2030"
  },
  {
    "id": 80,
    "lat": 51.1227059,
    "lng": 17.0348641,
    "place_id": "ChIJSbhl_uTpD0cRlEQKE8agvIE",
    "address": "BOLESŁAWA CHROBREGO 25/3 ŻABKA",
    "kat": "3",
    "end_date": "27/07/2031"
  },
  {
    "id": 81,
    "lat": 51.1170672,
    "lng": 17.0336985,
    "place_id": "ChIJ9d1idd7pD0cR-Z9G3dZ-QHo",
    "address": "BOLESŁAWA DROBNERA 10 CARREFOUR EXPRESS",
    "kat": "3",
    "end_date": "15/10/2030"
  },
  {
    "id": 82,
    "lat": 51.1172537,
    "lng": 17.0337872,
    "place_id": "ChIJ331K3t3pD0cRd6JdB2_aGT4",
    "address": "BOLESŁAWA DROBNERA 12 TENCZYNEK ŚWIEŻE (LOK. NR U4)",
    "kat": "3",
    "end_date": "02/03/2024"
  },
  {
    "id": 83,
    "lat": 51.1175139,
    "lng": 17.0340025,
    "place_id": "ChIJvVv5SEnpD0cRLZxHGDDbpyc",
    "address": "BOLESŁAWA DROBNERA 14/U6 ŻABKA",
    "kat": "3",
    "end_date": "16/12/2030"
  },
  {
    "id": 84,
    "lat": 51.1409651,
    "lng": 17.08202,
    "place_id": "ChIJ3YZUDEzpD0cRWAOKkKCpmWU",
    "address": "BOLESŁAWA KRZYWOUSTEGO 110-118 LIDL",
    "kat": "3",
    "end_date": "21/10/2029"
  },
  {
    "id": 85,
    "lat": 51.1421661,
    "lng": 17.0872383,
    "place_id": "ChIJeUwZrlboD0cR-cTo2FnIDEc",
    "address": "BOLESŁAWA KRZYWOUSTEGO 126 AUCHAN",
    "kat": "3",
    "end_date": "26/04/2031"
  },
  {
    "id": 86,
    "lat": 51.1418441,
    "lng": 17.0874233,
    "place_id": "ChIJ3UIHr1boD0cR89AnrCiwwGg",
    "address": "BOLESŁAWA KRZYWOUSTEGO 126 GRECO",
    "kat": "2",
    "end_date": "25/02/2030"
  },
  {
    "id": 87,
    "lat": 51.1424162,
    "lng": 17.0915611,
    "place_id": "ChIJRxTlG1foD0cRA1e7Pqr4RHI",
    "address": "BOLESŁAWA KRZYWOUSTEGO 172 STACJA PALIW NR 80",
    "kat": "3",
    "end_date": "24/01/2031"
  },
  {
    "id": 88,
    "lat": 51.1410115,
    "lng": 17.092935,
    "place_id": "ChIJGwyARVfoD0cRU3_Ok3s6gTg",
    "address": "BOLESŁAWA KRZYWOUSTEGO 177 STACJA PALIW NR 983",
    "kat": "3",
    "end_date": "19/01/2031"
  },
  {
    "id": 89,
    "lat": 51.1459467,
    "lng": 17.111574,
    "place_id": "ChIJA7ix3vToD0cRW8v2yGv5ijE",
    "address": "BOLESŁAWA KRZYWOUSTEGO 298 LION",
    "kat": "3",
    "end_date": "24/04/2029"
  },
  {
    "id": 90,
    "lat": 51.1380555,
    "lng": 17.0731394,
    "place_id": "ChIJvcTC_ofpD0cR12HTQSVVbrI",
    "address": "BOLESŁAWA KRZYWOUSTEGO 30 DINO",
    "kat": "3",
    "end_date": "09/02/2031"
  },
  {
    "id": 91,
    "lat": 51.1465555,
    "lng": 17.1131272,
    "place_id": "ChIJiTgEjgXpD0cRNXa4OY1o1as",
    "address": "BOLESŁAWA KRZYWOUSTEGO 314-316 ŻABKA",
    "kat": "3",
    "end_date": "16/11/2030"
  },
  {
    "id": 92,
    "lat": 51.1469413,
    "lng": 17.1137174,
    "place_id": "ChIJkRWji0_pD0cR7WbF62K20Wo",
    "address": "BOLESŁAWA KRZYWOUSTEGO 324",
    "kat": "3",
    "end_date": "03/04/2030"
  },
  {
    "id": 93,
    "lat": 51.1473688,
    "lng": 17.1141414,
    "place_id": "ChIJA1gAT_TpD0cR-S-cy_4e8f8",
    "address": "BOLESŁAWA KRZYWOUSTEGO 328/U1 ŻABKA",
    "kat": "3",
    "end_date": "27/12/2030"
  },
  {
    "id": 94,
    "lat": 51.1370049,
    "lng": 17.071838,
    "place_id": "ChIJWceBirLpD0cRpNtLk3JveUk",
    "address": "BOLESŁAWA KRZYWOUSTEGO 33a",
    "kat": "3",
    "end_date": "17/03/2030"
  },
  {
    "id": 95,
    "lat": 51.1381065,
    "lng": 17.0737051,
    "place_id": "ChIJ5WcoYa3pD0cRixzpNXvR1uU",
    "address": "BOLESŁAWA KRZYWOUSTEGO 40 BIEDRONKA",
    "kat": "3",
    "end_date": "11/12/2029"
  },
  {
    "id": 96,
    "lat": 51.137824,
    "lng": 17.07466,
    "place_id": "ChIJg_K_oLLpD0cR4jNM7Kwvna4",
    "address": "BOLESŁAWA KRZYWOUSTEGO 63A ŻABKA",
    "kat": "3",
    "end_date": "04/02/2029"
  },
  {
    "id": 97,
    "lat": 51.1193593,
    "lng": 17.0426264,
    "place_id": "Ei9Cb2xlc8WCYXdhIFBydXNhIDE2L3UyLCA1MC0zMTkgV3JvY8WCYXcsIFBvbGFuZCIeGhwKFgoUChIJBbVfbNvpD0cROaFZ_-Lr_rsSAnUy",
    "address": "BOLESŁAWA PRUSA 16/U2",
    "kat": "3",
    "end_date": "18/08/2030"
  },
  {
    "id": 98,
    "lat": 51.1196239,
    "lng": 17.0492414,
    "place_id": "ChIJjfIIB9DpD0cRydqubc7ttmA",
    "address": "BOLESŁAWA PRUSA 21 ŻABKA",
    "kat": "3",
    "end_date": "23/07/2030"
  },
  {
    "id": 99,
    "lat": 51.1196529,
    "lng": 17.0493288,
    "place_id": "ChIJP1maVhDpD0cR-7bvkszFSHg",
    "address": "BOLESŁAWA PRUSA 21 DUŻY BEN",
    "kat": "3",
    "end_date": "09/03/2031"
  },
  {
    "id": 100,
    "lat": 51.1189275,
    "lng": 17.0409186,
    "place_id": "ChIJSVHuftvpD0cRYbinI0GeUrk",
    "address": "BOLESŁAWA PRUSA 4 CARREFOUR",
    "kat": "3",
    "end_date": "28/08/2029"
  },
  {
    "id": 101,
    "lat": 51.119851,
    "lng": 17.045964,
    "place_id": "ChIJuwpBxdrpD0cRmESYu3GDY84",
    "address": "BOLESŁAWA PRUSA 46-48 ŻABKA",
    "kat": "3",
    "end_date": "02/07/2030"
  },
  {
    "id": 102,
    "lat": 51.1142918,
    "lng": 17.0022242,
    "place_id": "ChIJBYPAVwDCD0cRzZ28pJO8yC8",
    "address": "BOLESŁAWIECKA 4 KORNEL",
    "kat": "3",
    "end_date": "04/03/2029"
  },
  {
    "id": 103,
    "lat": 51.1143628,
    "lng": 17.001876,
    "place_id": "ChIJcZ8UVwDCD0cRi69nUzKnRMM",
    "address": "BOLESŁAWIECKA 6",
    "kat": "3",
    "end_date": "11/03/2031"
  },
  {
    "id": 104,
    "lat": 51.0849912,
    "lng": 17.0357004,
    "place_id": "ChIJHfbKqF7CD0cRNwDKbv-Bd8o",
    "address": "BOROWSKA 114 BIEDRONKA",
    "kat": "3",
    "end_date": "16/10/2022"
  },
  {
    "id": 105,
    "lat": 51.0823211,
    "lng": 17.035269,
    "place_id": "ChIJJzGmcVnCD0cRvoiCZoovFwM",
    "address": "BOROWSKA 134 LIDL",
    "kat": "3",
    "end_date": "14/07/2030"
  },
  {
    "id": 106,
    "lat": 51.078239,
    "lng": 17.0345881,
    "place_id": "ChIJ86m7kFDDD0cRPsGTIJU-CjU",
    "address": "BOROWSKA 180 ŻABKA",
    "kat": "3",
    "end_date": "19/12/2029"
  },
  {
    "id": 107,
    "lat": 51.074707,
    "lng": 17.0331407,
    "place_id": "ChIJd05udunpD0cRkavFwuFctJg",
    "address": "BOROWSKA 214 LEWIATAN",
    "kat": "3",
    "end_date": "25/10/2031"
  },
  {
    "id": 108,
    "lat": 51.1107571,
    "lng": 17.0141302,
    "place_id": "ChIJ42Mq_gLDD0cRGmgvMfbYHV8",
    "address": "BRANIBORSKA 14 ROSSMAN",
    "kat": "2",
    "end_date": "23/05/2029"
  },
  {
    "id": 109,
    "lat": 51.1108626,
    "lng": 17.0138717,
    "place_id": "ChIJ_Uwy6wjCD0cRPrky5L2_Bv0",
    "address": "BRANIBORSKA 18 BIEDRONKA",
    "kat": "3",
    "end_date": "12/05/2029"
  },
  {
    "id": 110,
    "lat": 51.1111888,
    "lng": 17.0117427,
    "place_id": "ChIJWSstJwbCD0cRtCiSRiHEWxw",
    "address": "BRANIBORSKA 46/UA ŻABKA",
    "kat": "3",
    "end_date": "28/12/2031"
  },
  {
    "id": 111,
    "lat": 51.1113397,
    "lng": 17.0067708,
    "place_id": "ChIJwRcQlAbCD0cRsJzfHZV1neM",
    "address": "BRANIBORSKA 82 LIDL",
    "kat": "3",
    "end_date": "20/11/2030"
  },
  {
    "id": 112,
    "lat": 51.1118431,
    "lng": 17.0062014,
    "place_id": "ChIJHWUqxwbCD0cRU8EgEHHJt-o",
    "address": "BRANIBORSKA 84 STACJA PALIW",
    "kat": "3",
    "end_date": "18/11/2022"
  },
  {
    "id": 113,
    "lat": 51.1739253,
    "lng": 16.9113768,
    "place_id": "ChIJZ54skSrrD0cR63HsBJW1qxc",
    "address": "BRODZKA 153/1A POD DĘBEM 2",
    "kat": "3",
    "end_date": "28/12/2029"
  },
  {
    "id": 114,
    "lat": 51.1738172,
    "lng": 16.9115867,
    "place_id": "EidCcm9kemthIDE1My8xYiwgNTQtMDY3IFdyb2PFgmF3LCBQb2xhbmQiHhocChYKFAoSCaGnE5Eq6w9HEfVF87bwPAMkEgIxYg",
    "address": "BRODZKA 153/1B",
    "kat": "3",
    "end_date": "02/04/2022"
  },
  {
    "id": 115,
    "lat": 51.1358138,
    "lng": 17.0347126,
    "place_id": "ChIJKVYdf5TpD0cR-nEZSiKlwxc",
    "address": "BRONIEWSKIEGO . DZIAŁKA NR 30",
    "kat": "3",
    "end_date": "04/09/2030"
  },
  {
    "id": 116,
    "lat": 51.04847,
    "lng": 17.027953,
    "place_id": "ChIJ-d3DwrrDD0cRJObPYcKElFc",
    "address": "BRYLANTOWA 16/U1 ŻABKA",
    "kat": "3",
    "end_date": "26/04/2022"
  },
  {
    "id": 117,
    "lat": 51.081122,
    "lng": 17.037381,
    "place_id": "ChIJcwEFD9DDD0cRVs6Ox5aanrE",
    "address": "BRZOSKWINIOWA 4/025 ŻABKA",
    "kat": "3",
    "end_date": "01/06/2031"
  },
  {
    "id": 118,
    "lat": 51.1132656,
    "lng": 16.9541105,
    "place_id": "ChIJ_0Ei1trBD0cRqQ6Ldsxi3V0",
    "address": "BUDZISZYŃSKA 107 POLOMARKET",
    "kat": "3",
    "end_date": "11/04/2029"
  },
  {
    "id": 119,
    "lat": 51.112542,
    "lng": 16.9593269,
    "place_id": "ChIJBVqRt9zBD0cRrGVAF2Xs2mQ",
    "address": "BUDZISZYŃSKA 64/LOK. 2.1 ŻABKA",
    "kat": "3",
    "end_date": "18/06/2030"
  },
  {
    "id": 120,
    "lat": 51.0509,
    "lng": 17.0595932,
    "place_id": "ChIJf2JeZDzDD0cRl6Zhe9QYKEI",
    "address": "BUFOROWA 100",
    "kat": "3",
    "end_date": "28/06/2031"
  },
  {
    "id": 121,
    "lat": 51.0691306,
    "lng": 17.0558258,
    "place_id": "ChIJ5_AyxXjDD0cRxmXWEo5nC58",
    "address": "BUFOROWA 6 LIDL",
    "kat": "3",
    "end_date": "24/11/2030"
  },
  {
    "id": 122,
    "lat": 51.0528,
    "lng": 17.056392,
    "place_id": "ChIJZZ6Jnc_DD0cR1Qgdw6Zr2Ps",
    "address": "BUFOROWA 99E/U ŻABKA",
    "kat": "3",
    "end_date": "23/10/2030"
  },
  {
    "id": 123,
    "lat": 51.126106,
    "lng": 16.971631,
    "place_id": "ChIJs824nnTqD0cRx2kX7sF7i3c",
    "address": "BULWAR IKARA 17",
    "kat": "3",
    "end_date": "20/07/2031"
  },
  {
    "id": 124,
    "lat": 51.1259766,
    "lng": 16.9716209,
    "place_id": "ChIJfUVkQunrD0cR2iXLAtjxjwc",
    "address": "BULWAR IKARA 17/1C DUŻY BEN",
    "kat": "3",
    "end_date": "27/07/2030"
  },
  {
    "id": 125,
    "lat": 51.1261132,
    "lng": 16.9706736,
    "place_id": "ChIJazRjg3TqD0cRb3Aq_FMzFco",
    "address": "BULWAR IKARA 27 ŻABKA",
    "kat": "3",
    "end_date": "29/12/2030"
  },
  {
    "id": 126,
    "lat": 51.0755123,
    "lng": 16.9928681,
    "place_id": "ChIJia1VZ8fDD0cR1JdFjok_ZCs",
    "address": "BURZOWA 2 ŻABKA",
    "kat": "3",
    "end_date": "28/12/2030"
  },
  {
    "id": 127,
    "lat": 51.1191891,
    "lng": 16.9792427,
    "place_id": "ChIJlV1rDuLBD0cRq2Bl_eyoAjs",
    "address": "BYSTRZYCKA 55 BIEDRONKA",
    "kat": "3",
    "end_date": "04/11/2022"
  },
  {
    "id": 128,
    "lat": 51.1196041,
    "lng": 16.9766581,
    "place_id": "ChIJS7Bs_2bBD0cRco0jSq2aQUE",
    "address": "BYSTRZYCKA 69C/67 ŻABKA",
    "kat": "3",
    "end_date": "12/08/2030"
  },
  {
    "id": 129,
    "lat": 51.1224884,
    "lng": 16.959978,
    "place_id": "ChIJA1-TgNjBD0cRFAdBcxTLHwY",
    "address": "BYSTRZYCKA 94B",
    "kat": "3",
    "end_date": "23/07/2029"
  },
  {
    "id": 130,
    "lat": 51.0675931,
    "lng": 17.0801225,
    "place_id": "ChIJbYtMqdDCD0cRJulMv0lz9lE",
    "address": "CEDROWA 6/5 ŻABKA",
    "kat": "3",
    "end_date": "24/11/2031"
  },
  {
    "id": 131,
    "lat": 51.138593,
    "lng": 16.979135,
    "place_id": "ChIJd9LYHmvqD0cRlh4qq2C4XuU",
    "address": "CELTYCKA 4 ŻABKA",
    "kat": "3",
    "end_date": "31/08/2031"
  },
  {
    "id": 132,
    "lat": 51.1100954,
    "lng": 17.1249197,
    "place_id": "EitDaGHFgnVwbmljemEgNjcvMTcsIDUxLTUwMyBXcm9jxYJhdywgUG9sYW5kIh4aHAoWChQKEglt85zC4ucPRxF928-oHYq7yhICMTc",
    "address": "CHAŁUPNICZA 67/LOK. 17 ŻABKA",
    "kat": "3",
    "end_date": "05/02/2030"
  },
  {
    "id": 133,
    "lat": 51.1153254,
    "lng": 16.9583334,
    "place_id": "EjJDaG9jaWVidXNrYSAmIE5vd29kd29yc2thLCA1NC00MzMgV3JvY8WCYXcsIFBvbGFuZCJmImQKFAoSCW0WUZvbwQ9HEdOfdKCW6KpwEhQKEgltFlGb28EPRxHTn3SgluiqcBoUChIJ76q_FNnBD0cR2bS8r7d0hcYaFAoSCSGaSYTbwQ9HEc-ydKyQMx12IgoNZpR3HhXmohsK",
    "address": "CHOCIEBUSKA/NOWODWORSKA (PAWILON NR 1)",
    "kat": "3",
    "end_date": "22/02/2029"
  },
  {
    "id": 134,
    "lat": 51.1361926,
    "lng": 17.0240591,
    "place_id": "ChIJj4w0Ho3pD0cRlsAV0Jr452Y",
    "address": "CHORWACKA 2C WITAMINKA",
    "kat": "3",
    "end_date": "27/10/2031"
  },
  {
    "id": 135,
    "lat": 51.1376547,
    "lng": 17.0268428,
    "place_id": "EihDaG9yd2Fja2EgMzMvdTIsIDUxLTEwNyBXcm9jxYJhdywgUG9sYW5kIh4aHAoWChQKEglpmzCgjekPRxHcI0omPpRFGxICdTI",
    "address": "CHORWACKA 33A/U2",
    "kat": "3",
    "end_date": "31/10/2029"
  },
  {
    "id": 136,
    "lat": 51.137732,
    "lng": 17.026912,
    "place_id": "ChIJyW8X3mLpD0cRxALWPXXGjnA",
    "address": "CHORWACKA 35B ROSSMANN",
    "kat": "2",
    "end_date": "11/01/2031"
  },
  {
    "id": 137,
    "lat": 51.1405521,
    "lng": 17.0254726,
    "place_id": "ChIJ6W-ymo7pD0cRNm1D1504544",
    "address": "CHORWACKA 45",
    "kat": "3",
    "end_date": "02/04/2030"
  },
  {
    "id": 138,
    "lat": 51.075942,
    "lng": 17.0833559,
    "place_id": "ChIJG_1nk8XCD0cRl069JpBygwA",
    "address": "CHORZOWSKA 10",
    "kat": "3",
    "end_date": "27/02/2032"
  },
  {
    "id": 139,
    "lat": 51.0923066,
    "lng": 17.0355418,
    "place_id": "ChIJm289q2fCD0cRSeeqQ5opoFQ",
    "address": "CIEPŁA 9/11 DINO",
    "kat": "3",
    "end_date": "04/03/2030"
  },
  {
    "id": 140,
    "lat": 51.1395225,
    "lng": 17.0639208,
    "place_id": "ChIJIVpM36_pD0cRbTnVhWPIq4E",
    "address": "CZAJKOWSKIEGO 50",
    "kat": "3",
    "end_date": "27/01/2023"
  },
  {
    "id": 141,
    "lat": 51.1405489,
    "lng": 17.0645455,
    "place_id": "ChIJewLYwK_pD0cRaBkzxSyl9j8",
    "address": "CZAJKOWSKIEGO 57A",
    "kat": "3",
    "end_date": "05/04/2022"
  },
  {
    "id": 142,
    "lat": 51.1160448,
    "lng": 17.0080512,
    "place_id": "ChIJKXVc-v3pD0cRzZsbS3uqLxU",
    "address": "CZARNIECKIEGO 13 DELIKATESY CENTRUM",
    "kat": "3",
    "end_date": "22/08/2031"
  },
  {
    "id": 143,
    "lat": 51.0594501,
    "lng": 16.9740231,
    "place_id": "ChIJyyGbSNzDD0cRPC1t7HShSgk",
    "address": "CZEKOLADOWA 58-58A ŻABKA",
    "kat": "3",
    "end_date": "30/09/2030"
  },
  {
    "id": 144,
    "lat": 51.0573744,
    "lng": 16.9728698,
    "place_id": "ChIJ3-fWMkfDD0cR0TLfekR5KDs",
    "address": "CZEKOLADOWA 81 BIEDRONKA",
    "kat": "3",
    "end_date": "04/02/2029"
  },
  {
    "id": 145,
    "lat": 51.1341653,
    "lng": 16.8940687,
    "place_id": "ChIJqaDolanqD0cRcr4QlXgeRKY",
    "address": "CZĘSTOCHOWSKA 14",
    "kat": "3",
    "end_date": "09/12/2030"
  },
  {
    "id": 146,
    "lat": 51.1347749,
    "lng": 16.8892161,
    "place_id": "Ei1DesSZc3RvY2hvd3NrYSA0MC8xYSwgNTQtMDMxIFdyb2PFgmF3LCBQb2xhbmQiHhocChYKFAoSCSmfNVyq6g9HEdhalbWy0fHCEgIxYQ",
    "address": "CZĘSTOCHOWSKA 40/1A",
    "kat": "3",
    "end_date": "31/01/2031"
  },
  {
    "id": 147,
    "lat": 51.1547439,
    "lng": 16.896208,
    "place_id": "ChIJj2nBNzWVD0cR1GtWPYr1qEM",
    "address": "DAKTYLOWA 8 LIDL",
    "kat": "3",
    "end_date": "10/07/2030"
  },
  {
    "id": 148,
    "lat": 51.12523,
    "lng": 17.0562949,
    "place_id": "EidEYW1yb3RhIDMzLzMzYSwgNTAtMzA2IFdyb2PFgmF3LCBQb2xhbmQiHxodChYKFAoSCR-oRtjI6Q9HEejjLECsDjbREgMzM2E",
    "address": "DAMROTA 33/33D I 33A/33C ŻABKA",
    "kat": "3",
    "end_date": "07/10/2031"
  },
  {
    "id": 149,
    "lat": 51.106165,
    "lng": 17.10415,
    "place_id": "ChIJn-PyUwPoD0cRKIPH8Z2SKnA",
    "address": "DEMBOWSKIEGO 57 ŻABKA",
    "kat": "3",
    "end_date": "23/02/2031"
  },
  {
    "id": 150,
    "lat": 51.1215347,
    "lng": 17.0163368,
    "place_id": "ChIJu2PLFvvpD0cRuDpCGqHcfi8",
    "address": "DŁUGA 37/47 KAUFLAND",
    "kat": "3",
    "end_date": "29/05/2030"
  },
  {
    "id": 151,
    "lat": 51.1318034,
    "lng": 17.059315,
    "place_id": "ChIJWTkHprfpD0cRg1tPjER8CKI",
    "address": "DŁUGOSZA 2 STU MOSTÓW",
    "kat": "2",
    "end_date": "21/07/2022"
  },
  {
    "id": 152,
    "lat": 51.1316271,
    "lng": 17.0586831,
    "place_id": "EjRKYW5hIETFgnVnb3N6YSAyL0JVRFlORUsgM0IsIDUxLTE2MiBXcm9jxYJhdywgUG9sYW5kIiYaJAoWChQKEgmdtcfpNukPRxGqg6-uZQ6MWhIKQlVEWU5FSyAzQg",
    "address": "DŁUGOSZA 2 (BUDYNEK 3B)",
    "kat": "1",
    "end_date": "06/03/2029"
  },
  {
    "id": 153,
    "lat": 51.1335997,
    "lng": 17.0611625,
    "place_id": "ChIJAQBk3bbpD0cRzBNFZ3dWi0Q",
    "address": "DŁUGOSZA 34 LIDL",
    "kat": "3",
    "end_date": "27/06/2022"
  },
  {
    "id": 154,
    "lat": 51.1122834,
    "lng": 17.0155362,
    "place_id": "EiBEb2JyYSA1LCA1My02NzEgV3JvY8WCYXcsIFBvbGFuZCIwEi4KFAoSCbnY-VoIwg9HERp9Ll9_shwwEAUqFAoSCZfL-fcIwg9HEXKmcJ4ObAyY",
    "address": "DOBRA 5",
    "kat": "1",
    "end_date": "20/05/2022"
  },
  {
    "id": 155,
    "lat": 51.1412781,
    "lng": 16.9649003,
    "place_id": "ChIJF5mjsWfqD0cROnY8bELOD0Q",
    "address": "DOKERSKA 11",
    "kat": "3",
    "end_date": "10/03/2030"
  },
  {
    "id": 156,
    "lat": 51.1415146,
    "lng": 16.9648413,
    "place_id": "ChIJLUhVpWfqD0cRRr8buVGL_GM",
    "address": "DOKERSKA 13A",
    "kat": "3",
    "end_date": "16/02/2023"
  },
  {
    "id": 157,
    "lat": 51.13809,
    "lng": 16.9653612,
    "place_id": "ChIJy-Hp3nfrD0cRnlWkpOkeT5M",
    "address": "DOKERSKA 2A BIEDRONKA",
    "kat": "3",
    "end_date": "04/11/2030"
  },
  {
    "id": 158,
    "lat": 51.140229,
    "lng": 16.96496,
    "place_id": "ChIJQzJUSGbqD0cRe4l2AUIh5tY",
    "address": "DOKERSKA 7 ŻABKA",
    "kat": "3",
    "end_date": "27/07/2031"
  },
  {
    "id": 159,
    "lat": 51.1508522,
    "lng": 16.8653135,
    "place_id": "EixEb2xub2JyemVza2EgMzZBL3UxLCA1NC0wNzIgV3JvY8WCYXcsIFBvbGFuZCIeGhwKFgoUChIJI_c6XUKVD0cRZX-hM296Z4oSAnUx",
    "address": "DOLNOBRZESKA 36A/U1",
    "kat": "3",
    "end_date": "30/10/2030"
  },
  {
    "id": 160,
    "lat": 51.151275,
    "lng": 16.864773,
    "place_id": "ChIJdS27bkKVD0cRuzo-prBqOVY",
    "address": "DOLNOBRZESKA 40A",
    "kat": "3",
    "end_date": "23/12/2030"
  },
  {
    "id": 161,
    "lat": 51.1532835,
    "lng": 16.8624362,
    "place_id": "ChIJY73xNS-VD0cRhNVTQ2mlreQ",
    "address": "DOLNOBRZESKA 46G/1 ŻABKA",
    "kat": "3",
    "end_date": "09/01/2030"
  },
  {
    "id": 162,
    "lat": 51.0907181,
    "lng": 17.0215384,
    "place_id": "ChIJs9W-7EHCD0cRAreJLOehFEQ",
    "address": "DRUKARSKA 24",
    "kat": "3",
    "end_date": "04/01/2031"
  },
  {
    "id": 163,
    "lat": 51.0892343,
    "lng": 17.0213494,
    "place_id": "ChIJXVwCeUHCD0cRTqim9nm3vzI",
    "address": "DRUKARSKA 34 SPOŁEM",
    "kat": "3",
    "end_date": "07/07/2022"
  },
  {
    "id": 164,
    "lat": 51.102845,
    "lng": 17.0402237,
    "place_id": "EiZEd29yY293YSA0LzFhLCA1MC00NTYgV3JvY8WCYXcsIFBvbGFuZCIeGhwKFgoUChIJ6Tf8YHrCD0cR-LtZB6ShvnESAjFh",
    "address": "DWORCOWA 4 LOK.1A",
    "kat": "3",
    "end_date": "24/04/2029"
  },
  {
    "id": 165,
    "lat": 51.102613,
    "lng": 17.0397328,
    "place_id": "ChIJ7zl-iXrCD0cRSXJi1wdDA0U",
    "address": "DWORCOWA 7A LONGINUS",
    "kat": "3",
    "end_date": "01/07/2022"
  },
  {
    "id": 166,
    "lat": 51.0953157,
    "lng": 17.0390347,
    "place_id": "EiZEeXJla2N5am5hIDMwLCA1MC01MjkgV3JvY8WCYXcsIFBvbGFuZCIwEi4KFAoSCTesvRdkwg9HEUvQ6ordhTP6EB4qFAoSCb_oUdllwg9HEfLBYKObibEP",
    "address": "DYREKCYJNA 30",
    "kat": "3",
    "end_date": "13/02/2029"
  },
  {
    "id": 167,
    "lat": 51.0951798,
    "lng": 17.0396823,
    "place_id": "ChIJ7-dIImTCD0cR0D8X_Cban3Y",
    "address": "DYREKCYJNA 33E ŻABKA",
    "kat": "3",
    "end_date": "27/08/2031"
  },
  {
    "id": 168,
    "lat": 51.137049,
    "lng": 16.9797191,
    "place_id": "ChIJ8SFYRmvqD0cRmo_4_xAYmTY",
    "address": "DZIADOSZAŃSKA 44E ŻABKA",
    "kat": "3",
    "end_date": "09/04/2031"
  },
  {
    "id": 169,
    "lat": 51.1374241,
    "lng": 16.9799271,
    "place_id": "ChIJL0TKFYnrD0cRlRqmplIg868",
    "address": "DZIADOSZAŃSKA 50A DUŻY BEN",
    "kat": "3",
    "end_date": "03/12/2030"
  },
  {
    "id": 170,
    "lat": 51.137688,
    "lng": 16.9709629,
    "place_id": "ChIJ89ZnNmnqD0cR7Hyqr6247X4",
    "address": "DZIELNA 3",
    "kat": "1",
    "end_date": "23/05/2029"
  },
  {
    "id": 171,
    "lat": 51.1365069,
    "lng": 16.975631,
    "place_id": "ChIJo_z3h2vqD0cRuWM8GWPLucQ",
    "address": "DZIELNA 53",
    "kat": "3",
    "end_date": "30/07/2030"
  },
  {
    "id": 172,
    "lat": 51.1374398,
    "lng": 16.9715319,
    "place_id": "ChIJlWDaS2nqD0cRYY2cn0jkpTM",
    "address": "DZIELNA 7A STOKROTKA",
    "kat": "3",
    "end_date": "20/10/2031"
  },
  {
    "id": 173,
    "lat": 51.07604,
    "lng": 17.044622,
    "place_id": "ChIJy-L0jvnCD0cRUSnlStdrAs0",
    "address": "DZIERŻONIOWSKA 7/1a REGIOFOOD",
    "kat": "2",
    "end_date": "15/02/2031"
  },
  {
    "id": 174,
    "lat": 51.0541129,
    "lng": 17.0519058,
    "place_id": "EidLYWpkYXN6YSAzMi91MiwgNTItMjM0IFdyb2PFgmF3LCBQb2xhbmQiHhocChYKFAoSCRP7hFsqww9HETFJL4I20faMEgJ1Mg",
    "address": "EDMUNDA KAJDASZA 32/U2 BOTTIGLIA",
    "kat": "3",
    "end_date": "16/11/2031"
  },
  {
    "id": 175,
    "lat": 51.0547199,
    "lng": 17.0511316,
    "place_id": "EidLYWpkYXN6YSAzOC91OSwgNTItMjM0IFdyb2PFgmF3LCBQb2xhbmQiHhocChYKFAoSCYFuWCbHww9HEdUmbRTk9rO2EgJ1OQ",
    "address": "EDMUNDA KAJDASZA 38/U9",
    "kat": "3",
    "end_date": "14/03/2032"
  },
  {
    "id": 176,
    "lat": 51.0539429,
    "lng": 17.0515433,
    "place_id": "ChIJkTkeIgvDD0cR9oncVFOUhb8",
    "address": "EDMUNDA KAJDASZA 44 ŻABKA",
    "kat": "3",
    "end_date": "24/01/2032"
  },
  {
    "id": 177,
    "lat": 51.1256413,
    "lng": 16.9730769,
    "place_id": "ChIJB4Z6rnTqD0cRTLt_JKb6SE4",
    "address": "EUGENIUSZA HORBACZEWSKIEGO 21/C2 ŻABKA",
    "kat": "3",
    "end_date": "30/12/2029"
  },
  {
    "id": 178,
    "lat": 51.1270339,
    "lng": 16.9759463,
    "place_id": "ChIJW8PCvzbrD0cRre2HboN9cgk",
    "address": "EUGENIUSZA HORBACZEWSKIEGO 4-6 ROSSMANN",
    "kat": "2",
    "end_date": "01/12/2029"
  },
  {
    "id": 179,
    "lat": 51.1109509,
    "lng": 17.1214702,
    "place_id": "ChIJl983az7pD0cR1fATpc5LQoE",
    "address": "FERDYNANDA MAGELLANA 14A ŻABKA",
    "kat": "3",
    "end_date": "09/08/2031"
  },
  {
    "id": 180,
    "lat": 51.1122995,
    "lng": 17.1222051,
    "place_id": "ChIJo9lhseDpD0cRnYR2jmoi6nU",
    "address": "FERDYNANDA MAGELLANA 24a DUŻY BEN",
    "kat": "3",
    "end_date": "18/12/2029"
  },
  {
    "id": 181,
    "lat": 51.10188,
    "lng": 17.026722,
    "place_id": "ChIJM2Kyh23CD0cRCOVGO1U8ZHk",
    "address": "GABRIELI ZAPOLSKIEJ 1 ŻABKA",
    "kat": "3",
    "end_date": "09/04/2029"
  },
  {
    "id": 182,
    "lat": 51.09189,
    "lng": 17.0403072,
    "place_id": "ChIJO3gPm2TDD0cRCbN3VNwpjU8",
    "address": "GAJOWA 25 DUŻY BEN",
    "kat": "3",
    "end_date": "14/01/2030"
  },
  {
    "id": 183,
    "lat": 51.0905877,
    "lng": 17.0400796,
    "place_id": "ChIJIzkkv2DCD0cR64wu5tK1ugA",
    "address": "GAJOWA 35A DELIKATESY CENTRUM",
    "kat": "3",
    "end_date": "19/11/2030"
  },
  {
    "id": 184,
    "lat": 51.0902041,
    "lng": 17.0401558,
    "place_id": "ChIJz2-RiZnDD0cR6WY_NQrXC9k",
    "address": "GAJOWA 38/1A ŻABKA",
    "kat": "3",
    "end_date": "12/01/2032"
  },
  {
    "id": 185,
    "lat": 51.09237,
    "lng": 17.040779,
    "place_id": "ChIJd1WHL2HCD0cRX7VXQDcQ5ek",
    "address": "GAJOWA 39B ŻABKA",
    "kat": "3",
    "end_date": "24/03/2030"
  },
  {
    "id": 186,
    "lat": 51.08824,
    "lng": 17.0065851,
    "place_id": "ChIJn5cDUDnCD0cRyU5yFsQvzrI",
    "address": "GAJOWICKA 148A",
    "kat": "3",
    "end_date": "05/03/2029"
  },
  {
    "id": 187,
    "lat": 51.0855541,
    "lng": 17.0040877,
    "place_id": "ChIJuT-HiTnCD0cRngsNwhQJnAE",
    "address": "GAJOWICKA 177 ŻABKA",
    "kat": "3",
    "end_date": "13/12/2030"
  },
  {
    "id": 188,
    "lat": 51.096593,
    "lng": 17.014173,
    "place_id": "ChIJBzVtWhTCD0cRI0adPWrjCOI",
    "address": "GAJOWICKA 62",
    "kat": "3",
    "end_date": "19/10/2031"
  },
  {
    "id": 189,
    "lat": 51.0957744,
    "lng": 17.010761,
    "place_id": "ChIJFZBg1xXCD0cR_6qAyYKqNLU",
    "address": "GAJOWICKA 95/6",
    "kat": "3",
    "end_date": "28/01/2030"
  },
  {
    "id": 190,
    "lat": 51.0945808,
    "lng": 17.0108776,
    "place_id": "ChIJe7C17hXCD0cRH6RR2PFVVOw",
    "address": "GAJOWICKA 96 MAJA",
    "kat": "3",
    "end_date": "17/11/2030"
  },
  {
    "id": 191,
    "lat": 51.0778963,
    "lng": 17.0700247,
    "place_id": "ChIJEXoece_CD0cRPQs9bbOO_n4",
    "address": "GAZOWA 3 STACJA PALIW",
    "kat": "3",
    "end_date": "16/11/2030"
  },
  {
    "id": 192,
    "lat": 51.0785697,
    "lng": 17.0687968,
    "place_id": "ChIJ0QT2uCfDD0cRr4gGdvXQrpY",
    "address": "GAZOWA 94 ŻABKA",
    "kat": "3",
    "end_date": "29/12/2030"
  },
  {
    "id": 193,
    "lat": 51.1163053,
    "lng": 17.0647048,
    "place_id": "EiZHZGHFhHNrYSAxL3UyLCA1MC0zMzQgV3JvY8WCYXcsIFBvbGFuZCIeGhwKFgoUChIJ68zAaS3oD0cRNcDh3NZW68kSAnUy",
    "address": "GDAŃSKA 1B/LOK. U2.1 ŻABKA",
    "kat": "3",
    "end_date": "20/10/2031"
  },
  {
    "id": 194,
    "lat": 51.1555222,
    "lng": 17.1199779,
    "place_id": "ChIJr3-9KJPoD0cRHVAjMX_iEZI",
    "address": "GENERAŁA BORA-KOMOROWSKIEGO 41",
    "kat": "1",
    "end_date": "08/04/2030"
  },
  {
    "id": 195,
    "lat": 51.0570344,
    "lng": 17.0328519,
    "place_id": "ChIJvT-ztgjDD0cRuZE1gNy_Ft0",
    "address": "GENERAŁA GROTA-ROWECKIEGO 114A ŻABKA",
    "kat": "3",
    "end_date": "28/06/2022"
  },
  {
    "id": 196,
    "lat": 51.098112,
    "lng": 17.0491644,
    "place_id": "ChIJDW5JyGLCD0cRsBMF-gc4N9o",
    "address": "GENERAŁA IGNACEGO PRĄDZYŃSKIEGO 40/1B FENIKS",
    "kat": "3",
    "end_date": "20/10/2031"
  },
  {
    "id": 197,
    "lat": 51.1019775,
    "lng": 17.0420637,
    "place_id": "ChIJUwH9xfjDD0cR-1ju60-MAEg",
    "address": "GENERAŁA KAROLA KNIAZIEWICZA 14/1A ŻABKA",
    "kat": "3",
    "end_date": "04/03/2030"
  },
  {
    "id": 198,
    "lat": 51.1008821,
    "lng": 17.0462317,
    "place_id": "ChIJv7wANoPDD0cRx9w54wdzmg4",
    "address": "GENERAŁA KAZIMIERZA PUŁASKIEGO 24/1A CARREFOUR EXPRESS",
    "kat": "3",
    "end_date": "15/06/2031"
  },
  {
    "id": 199,
    "lat": 51.1609529,
    "lng": 17.1237896,
    "place_id": "ChIJBVKwMZXoD0cRqP6V0FfeYRs",
    "address": "GENERAŁA LEOPOLDA OKULICKIEGO 11 NATURALNY BAZAR",
    "kat": "2",
    "end_date": "29/02/2032"
  },
  {
    "id": 200,
    "lat": 51.16273,
    "lng": 17.125286,
    "place_id": "ChIJK3C7YsPpD0cRpZPQCahApUk",
    "address": "GENERAŁA LEOPOLDA OKULICKIEGO 19 ŻABKA",
    "kat": "3",
    "end_date": "16/03/2030"
  },
  {
    "id": 202,
    "lat": 51.162514,
    "lng": 17.1252318,
    "place_id": "ChIJGZ-DX5XoD0cRaCQBWDvKRG4",
    "address": "GENERAŁA OKULICKIEGO 19A DULKRA",
    "kat": "1",
    "end_date": "09/12/2029"
  },
  {
    "id": 203,
    "lat": 51.098263,
    "lng": 17.048841,
    "place_id": "ChIJZWGOxmLCD0cRwYjXdOswo7U",
    "address": "GENERAŁA PRĄDZYŃSKIEGO 47/u3 ŻABKA",
    "kat": "3",
    "end_date": "03/09/2031"
  },
  {
    "id": 204,
    "lat": 51.1004471,
    "lng": 17.0533524,
    "place_id": "EjxHZW5lcmHFgmEgUm9tdWFsZGEgVHJhdWd1dHRhIDEwNy8xYSwgNTAtNDM4IFdyb2PFgmF3LCBQb2xhbmQiHhocChYKFAoSCX1fcYGHwg9HEdbq_niCLNY7EgIxYQ",
    "address": "GENERAŁA ROMUALDA TRAUGUTTA 107/1A DUŻY BEN",
    "kat": "3",
    "end_date": "13/12/2030"
  },
  {
    "id": 205,
    "lat": 51.0979264,
    "lng": 17.0561805,
    "place_id": "EjxHZW5lcmHFgmEgUm9tdWFsZGEgVHJhdWd1dHRhIDEzMi91NiwgNTAtNDM4IFdyb2PFgmF3LCBQb2xhbmQiHhocChYKFAoSCQeMXyaGwg9HEWPtoAF2Yss6EgJ1Ng",
    "address": "GENERAŁA ROMUALDA TRAUGUTTA 132/U5 I U6 ŻABKA",
    "kat": "3",
    "end_date": "21/03/2029"
  },
  {
    "id": 206,
    "lat": 51.1027523,
    "lng": 17.0506151,
    "place_id": "ChIJaUvzy33CD0cRuT1RqiB7ruo",
    "address": "GENERAŁA ROMUALDA TRAUGUTTA 71",
    "kat": "3",
    "end_date": "15/03/2023"
  },
  {
    "id": 207,
    "lat": 51.1019272,
    "lng": 17.0518709,
    "place_id": "ChIJoQR2ln3CD0cRlHif8_tp-qc",
    "address": "GENERAŁA ROMUALDA TRAUGUTTA 87",
    "kat": "3",
    "end_date": "26/09/2029"
  },
  {
    "id": 208,
    "lat": 51.1139756,
    "lng": 17.0212937,
    "place_id": "EilTaWtvcnNraWVnbyA1LzVkLCA1My02NTkgV3JvY8WCYXcsIFBvbGFuZCIeGhwKFgoUChIJL62K-uHpD0cRvVQxD9bl3OQSAjVk",
    "address": "GENERAŁA WŁADYSŁAWA SIKORSKIEGO 5C i 5D ŻABKA",
    "kat": "3",
    "end_date": "09/08/2029"
  },
  {
    "id": 209,
    "lat": 51.1139899,
    "lng": 17.0213937,
    "place_id": "ChIJk4tYdYrpD0cROerPzBydZLM",
    "address": "GENERAŁA WŁADYSŁAWA SIKORSKIEGO 5J AVOCADO",
    "kat": "3",
    "end_date": "09/06/2031"
  },
  {
    "id": 210,
    "lat": 51.093132,
    "lng": 17.036645,
    "place_id": "ChIJVaRj92bCD0cRHaON9ILfKR4",
    "address": "GLINIANA 43 ŻABKA",
    "kat": "3",
    "end_date": "28/03/2030"
  },
  {
    "id": 211,
    "lat": 51.0931196,
    "lng": 17.0375372,
    "place_id": "ChIJ23Nw5mbCD0cRGm7s7GdFndI",
    "address": "GLINIANA 56",
    "kat": "3",
    "end_date": "18/12/2031"
  },
  {
    "id": 212,
    "lat": 51.1165245,
    "lng": 17.0031218,
    "place_id": "ChIJA8Aj1P_pD0cRU8yws4K8DFw",
    "address": "GŁOGOWSKA 6",
    "kat": "3",
    "end_date": "12/02/2032"
  },
  {
    "id": 213,
    "lat": 51.1595226,
    "lng": 16.9115404,
    "place_id": "ChIJsYBl-ZnrD0cRehHknv9QWR4",
    "address": "GŁÓWNA 23 DELIKATESY KONKRET",
    "kat": "3",
    "end_date": "09/05/2029"
  },
  {
    "id": 214,
    "lat": 51.161004,
    "lng": 16.905718,
    "place_id": "ChIJfUn2r83qD0cRYlArpq-epTw",
    "address": "GŁÓWNA 69",
    "kat": "3",
    "end_date": "21/01/2030"
  },
  {
    "id": 215,
    "lat": 51.161546,
    "lng": 16.9015132,
    "place_id": "ChIJ__8PLc3qD0cRDj8QcVkFA44",
    "address": "GŁÓWNA 94/A",
    "kat": "3",
    "end_date": "24/11/2031"
  },
  {
    "id": 216,
    "lat": 51.113384,
    "lng": 17.097804,
    "place_id": "ChIJqYllZBfoD0cRakVScZwAk5Q",
    "address": "GODEBSKIEGO 2-4",
    "kat": "3",
    "end_date": "30/01/2030"
  },
  {
    "id": 217,
    "lat": 51.1433636,
    "lng": 17.1230892,
    "place_id": "EidHb3JsaWNrYSA2MC8xdSwgNTEtMzE0IFdyb2PFgmF3LCBQb2xhbmQiHhocChYKFAoSCZFi_h6K6A9HESk4ceH7nK2cEgIxdQ",
    "address": "GORLICKA 60/1U DELIKATESY FAMILIJNE",
    "kat": "3",
    "end_date": "30/06/2029"
  },
  {
    "id": 218,
    "lat": 51.1425039,
    "lng": 17.1214938,
    "place_id": "ChIJY0Lk7d3pD0cRjXvJlGHvAao",
    "address": "GORLICKA 61/1U2U ŻABKA",
    "kat": "3",
    "end_date": "18/03/2031"
  },
  {
    "id": 219,
    "lat": 51.1550691,
    "lng": 16.9151279,
    "place_id": "ChIJyx7RasbqD0cRGeScI9pfmjI",
    "address": "GÓRECKA 149",
    "kat": "3",
    "end_date": "20/12/2022"
  },
  {
    "id": 220,
    "lat": 51.1368996,
    "lng": 16.9579351,
    "place_id": "ChIJ32IWe2TqD0cRL1JE-4ksDO8",
    "address": "GÓRNICZA 51A ŻABKA",
    "kat": "3",
    "end_date": "18/11/2030"
  },
  {
    "id": 221,
    "lat": 51.1107338,
    "lng": 17.0253549,
    "place_id": "ChIJSfij5grCD0cRk2_1mt5_bR0",
    "address": "GRABARSKA 2 BIEDRONKA",
    "kat": "3",
    "end_date": "28/09/2022"
  },
  {
    "id": 222,
    "lat": 51.099761,
    "lng": 17.0030671,
    "place_id": "ChIJ4drCjBnCD0cRMicrJoiqs2g",
    "address": "GRABISZYŃSKA 130 ŻABKA",
    "kat": "3",
    "end_date": "30/08/2031"
  },
  {
    "id": 223,
    "lat": 51.099761,
    "lng": 17.0030671,
    "place_id": "ChIJ4drCjBnCD0cRj3lk8vN3_B8",
    "address": "GRABISZYŃSKA 130 LEWIATAN",
    "kat": "3",
    "end_date": "05/08/2030"
  },
  {
    "id": 224,
    "lat": 51.099659,
    "lng": 17.000477,
    "place_id": "ChIJ8Q5pwYbDD0cRfi6I-y5_aVA",
    "address": "GRABISZYŃSKA 139B ŻABKA",
    "kat": "3",
    "end_date": "22/04/2031"
  },
  {
    "id": 225,
    "lat": 51.0986363,
    "lng": 16.9954352,
    "place_id": "ChIJtaPm1x7CD0cR5-LTQtikEcw",
    "address": "GRABISZYŃSKA 167 ALDI",
    "kat": "3",
    "end_date": "13/12/2030"
  },
  {
    "id": 226,
    "lat": 51.096697,
    "lng": 16.990651,
    "place_id": "ChIJUQbCpIHDD0cRMrOw1Hs5eto",
    "address": "GRABISZYŃSKA 186A ŻABKA",
    "kat": "3",
    "end_date": "06/02/2030"
  },
  {
    "id": 227,
    "lat": 51.0979942,
    "lng": 16.992533,
    "place_id": "ChIJPXmJCR_CD0cRjyA2udk6Fv0",
    "address": "GRABISZYŃSKA 187 STACJA PALIW",
    "kat": "3",
    "end_date": "10/01/2031"
  },
  {
    "id": 228,
    "lat": 51.0964153,
    "lng": 16.9888973,
    "place_id": "ChIJsRQlLxnDD0cR9qgRNPEwWmg",
    "address": "GRABISZYŃSKA 204B",
    "kat": "3",
    "end_date": "14/04/2030"
  },
  {
    "id": 229,
    "lat": 51.0957538,
    "lng": 16.9871576,
    "place_id": "ChIJg0WINxzDD0cRBJ0mng84bow",
    "address": "GRABISZYŃSKA 214/U2 DUŻY BEN",
    "kat": "3",
    "end_date": "19/08/2029"
  },
  {
    "id": 230,
    "lat": 51.0992641,
    "lng": 16.9903564,
    "place_id": "ChIJJ0Z0V_XBD0cR_67R2AX4kcY",
    "address": "GRABISZYŃSKA 235 W WYTWÓRNI NAPOJÓW ALKOHOLOWYCH BRESLAUER GIN",
    "kat": "3",
    "end_date": "14/11/2031"
  },
  {
    "id": 231,
    "lat": 51.0944269,
    "lng": 16.9817697,
    "place_id": "ChIJERgns4vBD0cR82-1V3dkxiw",
    "address": "GRABISZYŃSKA 238-240 TENCZYNEK ŚWIEŻE (LOK. 0.22)",
    "kat": "3",
    "end_date": "03/03/2032"
  },
  {
    "id": 232,
    "lat": 51.0941931,
    "lng": 16.9814995,
    "place_id": "ChIJcQFQ0zDBD0cREC3rXYJiVEA",
    "address": "GRABISZYŃSKA 238-240 BIEDRONKA",
    "kat": "3",
    "end_date": "04/11/2030"
  },
  {
    "id": 233,
    "lat": 51.0944269,
    "lng": 16.9817697,
    "place_id": "ChIJFc1LsYvBD0cROY07W9jPrmk",
    "address": "GRABISZYŃSKA 238-240 ROSSMANN",
    "kat": "2",
    "end_date": "03/09/2029"
  },
  {
    "id": 234,
    "lat": 51.0945006,
    "lng": 16.9818202,
    "place_id": "ChIJofoatIvBD0cRAfsvKk1mmPQ",
    "address": "GRABISZYŃSKA 240 (LOK. 0.20)",
    "kat": "3",
    "end_date": "02/07/2029"
  },
  {
    "id": 235,
    "lat": 51.0964062,
    "lng": 16.9838421,
    "place_id": "ChIJKc8RlAbCD0cR7GHLrTscXC0",
    "address": "GRABISZYŃSKA 253 LIDL",
    "kat": "3",
    "end_date": "31/10/2022"
  },
  {
    "id": 236,
    "lat": 51.1033259,
    "lng": 17.018344,
    "place_id": "ChIJ9UdJhw3CD0cRj4AzWK9oFqY",
    "address": "GRABISZYŃSKA 26",
    "kat": "3",
    "end_date": "30/04/2029"
  },
  {
    "id": 237,
    "lat": 51.0939275,
    "lng": 16.9792607,
    "place_id": "ChIJF_Zx6YvBD0cRjVYpQaYbyB8",
    "address": "GRABISZYŃSKA 266 STACJA PALIW",
    "kat": "3",
    "end_date": "05/12/2031"
  },
  {
    "id": 238,
    "lat": 51.094263,
    "lng": 16.978221,
    "place_id": "ChIJZ-CD9IvBD0cReAzlgT7te6I",
    "address": "GRABISZYŃSKA 287",
    "kat": "3",
    "end_date": "27/09/2031"
  },
  {
    "id": 239,
    "lat": 51.1023547,
    "lng": 17.0145106,
    "place_id": "ChIJdRdgIBLCD0cRB2dxPYmQoPI",
    "address": "GRABISZYŃSKA 56 NR 29 DELIKATESY CENTRUM GRABISZYŃSKA",
    "kat": "3",
    "end_date": "28/02/2030"
  },
  {
    "id": 240,
    "lat": 51.1017269,
    "lng": 17.012355,
    "place_id": "ChIJJcDMnhHCD0cRwA-bEl_6_Qs",
    "address": "GRABISZYŃSKA 66d",
    "kat": "3",
    "end_date": "22/09/2031"
  },
  {
    "id": 241,
    "lat": 51.1047295,
    "lng": 17.0213298,
    "place_id": "ChIJvcedPZLDD0cRyhoms-U9sME",
    "address": "GRABISZYŃSKA 9/VII ŻABKA",
    "kat": "3",
    "end_date": "01/04/2031"
  },
  {
    "id": 242,
    "lat": 51.1094463,
    "lng": 16.880426,
    "place_id": "ChIJfdrLs3PAD0cRKAX6Ns86fGM",
    "address": "GRANICZNA 190 ZOOM B05",
    "kat": "3",
    "end_date": "27/06/2030"
  },
  {
    "id": 243,
    "lat": 51.1094463,
    "lng": 16.8804261,
    "place_id": "ChIJh4zs8DLBD0cRlt57OmkhoSs",
    "address": "GRANICZNA 190 DISCOVER (POZIOM 0)",
    "kat": "3",
    "end_date": "26/04/2022"
  },
  {
    "id": 244,
    "lat": 51.1094463,
    "lng": 16.880426,
    "place_id": "EkFUZXJtaW5hbCBwYXNhxbxlcnNraSwgR3Jhbmljem5hIDE5MC9CIDA3LCA1NC01MzAgV3JvY8WCYXcsIFBvbGFuZCIgGh4KFgoUChIJfdrLs3PAD0cRKAX6Ns86fGMSBEIgMDc",
    "address": "GRANICZNA 190 B 07 WYSPA NON-SCHENGEN",
    "kat": "3",
    "end_date": "05/02/2030"
  },
  {
    "id": 247,
    "lat": 51.1094463,
    "lng": 16.880426,
    "place_id": "EkBUZXJtaW5hbCBwYXNhxbxlcnNraSwgR3Jhbmljem5hIDE5MC9iMDQsIDU0LTUzMCBXcm9jxYJhdywgUG9sYW5kIh8aHQoWChQKEgl92suzc8APRxEoBfo2zzp8YxIDYjA0",
    "address": "GRANICZNA 190 SPIRIT OF POLAND B04",
    "kat": "3",
    "end_date": "27/06/2030"
  },
  {
    "id": 248,
    "lat": 51.105539,
    "lng": 16.9459988,
    "place_id": "ChIJJeHNM8bBD0cRRvbriPrepGk",
    "address": "GRANICZNA 2A CARREFOUR",
    "kat": "3",
    "end_date": "03/03/2032"
  },
  {
    "id": 249,
    "lat": 51.1055445,
    "lng": 16.946514,
    "place_id": "ChIJ-0WhzcfBD0cRVvh2041gRpk",
    "address": "GRANICZNA 2A ROSSMANN (LOK. M8)",
    "kat": "2",
    "end_date": "29/11/2022"
  },
  {
    "id": 250,
    "lat": 51.1067003,
    "lng": 16.9286794,
    "place_id": "ChIJJQHTXDXAD0cRKQX5kQxZW1w",
    "address": "GRANICZNA 8B",
    "kat": "3",
    "end_date": "09/06/2031"
  },
  {
    "id": 251,
    "lat": 51.11457,
    "lng": 17.05749,
    "place_id": "ChIJ0XK_ntPpD0cRZB_r1qCXKC8",
    "address": "GRUNWALDZKA 22 ŻABKA",
    "kat": "3",
    "end_date": "23/04/2030"
  },
  {
    "id": 252,
    "lat": 51.1139093,
    "lng": 17.0598714,
    "place_id": "ChIJt9thQ9PpD0cRPvLLXIginto",
    "address": "GRUNWALDZKA 42A",
    "kat": "3",
    "end_date": "30/04/2029"
  },
  {
    "id": 253,
    "lat": 51.1141577,
    "lng": 17.0665241,
    "place_id": "ChIJQ34HOizoD0cRbupXSxzQIlw",
    "address": "GRUNWALDZKA 67 CARREFOUR",
    "kat": "3",
    "end_date": "17/04/2029"
  },
  {
    "id": 254,
    "lat": 51.1126955,
    "lng": 16.9587737,
    "place_id": "ChIJQXFIO8PBD0cRHgPFL1-xgsU",
    "address": "GUBIŃSKA 4 LIDL",
    "kat": "3",
    "end_date": "31/10/2022"
  },
  {
    "id": 255,
    "lat": 51.1133549,
    "lng": 16.9583431,
    "place_id": "ChIJSxWdn9zBD0cR_NSwNmfCSuE",
    "address": "GUBIŃSKA 6 STACJA PALIW",
    "kat": "3",
    "end_date": "05/09/2022"
  },
  {
    "id": 256,
    "lat": 51.136877,
    "lng": 16.9003186,
    "place_id": "ChIJrdbjYSfrD0cRMlhbw2raPpU",
    "address": "HALICKA 10 ŻABKA",
    "kat": "3",
    "end_date": "03/12/2030"
  },
  {
    "id": 257,
    "lat": 51.1361399,
    "lng": 16.9226967,
    "place_id": "ChIJkTeNZajrD0cRz-VgCIQN2zg",
    "address": "HANSA POELZIGA 14/21 ŻABKA",
    "kat": "3",
    "end_date": "11/08/2031"
  },
  {
    "id": 258,
    "lat": 51.1184757,
    "lng": 17.033131,
    "place_id": "EjBIZW5yeWthIEJyb2RhdGVnbyAxMS8xYSwgNTItMDA3IFdyb2PFgmF3LCBQb2xhbmQiHhocChYKFAoSCf--I_Pd6Q9HEZzcQKsVqQ2LEgIxYQ",
    "address": "HENRYKA BRODATEGO 11/1A W KAWIARNI",
    "kat": "1",
    "end_date": "27/09/2030"
  },
  {
    "id": 259,
    "lat": 51.1186499,
    "lng": 17.033417,
    "place_id": "ChIJhQywhMHpD0cRYI9cBOgwiog",
    "address": "HENRYKA BRODATEGO 13 ŻABKA",
    "kat": "3",
    "end_date": "02/01/2031"
  },
  {
    "id": 260,
    "lat": 51.101284,
    "lng": 17.104787,
    "place_id": "ChIJkQmXh3bpD0cRpfJQV2dGvYU",
    "address": "HENRYKA HIPOLITA RODAKOWSKIEGO 4/U1 ŻABKA",
    "kat": "3",
    "end_date": "07/10/2029"
  },
  {
    "id": 261,
    "lat": 51.1486385,
    "lng": 17.0422947,
    "place_id": "ChIJTfW6D5zpD0cRAbWfY2CMz9I",
    "address": "HENRYKA MICHAŁA KAMIEŃSKIEGO 132-144/2 ŻABKA",
    "kat": "3",
    "end_date": "26/08/2030"
  },
  {
    "id": 262,
    "lat": 51.1533989,
    "lng": 17.0433638,
    "place_id": "ChIJiSG9J3bpD0cRfo5vsn_6dQk",
    "address": "HENRYKA MICHAŁA KAMIEŃSKIEGO 188 TROPICAL MARKET",
    "kat": "2",
    "end_date": "03/11/2030"
  },
  {
    "id": 263,
    "lat": 51.1540973,
    "lng": 17.0442695,
    "place_id": "ChIJLdl2RbjpD0cRrcdA1OL7uiE",
    "address": "HENRYKA MICHAŁA KAMIEŃSKIEGO 213/U3 DUŻY BEN",
    "kat": "3",
    "end_date": "01/03/2030"
  },
  {
    "id": 264,
    "lat": 51.1546963,
    "lng": 17.0444168,
    "place_id": "ChIJlaErRnbpD0cRLpzXmJsDQ_8",
    "address": "HENRYKA MICHAŁA KAMIEŃSKIEGO 219/U1 ŻABKA",
    "kat": "3",
    "end_date": "22/04/2031"
  },
  {
    "id": 265,
    "lat": 51.140336,
    "lng": 17.0336,
    "place_id": "ChIJL-BOu5HpD0cR7rJbZTEqLO4",
    "address": "HENRYKA MICHAŁA KAMIEŃSKIEGO 3 ŻABKA",
    "kat": "3",
    "end_date": "31/03/2030"
  },
  {
    "id": 266,
    "lat": 51.1206169,
    "lng": 17.0387959,
    "place_id": "ChIJnTbn3NzpD0cRCWDc8gx30T4",
    "address": "HENRYKA POBOŻNEGO 10C",
    "kat": "3",
    "end_date": "05/10/2022"
  },
  {
    "id": 267,
    "lat": 51.1208011,
    "lng": 17.0389473,
    "place_id": "ChIJO5F8Z5HpD0cRdOXSLQHOVrE",
    "address": "HENRYKA POBOŻNEGO 11 DELIKATESY CENTRUM",
    "kat": "3",
    "end_date": "01/10/2029"
  },
  {
    "id": 268,
    "lat": 51.120598,
    "lng": 17.037994,
    "place_id": "ChIJN02t39zpD0cRX9hXP45jA2E",
    "address": "HENRYKA POBOŻNEGO 16A/18C ŻABKA",
    "kat": "3",
    "end_date": "14/04/2031"
  },
  {
    "id": 269,
    "lat": 51.103079,
    "lng": 17.094921,
    "place_id": "ChIJC5s59x3oD0cRRWA-pDfo2N8",
    "address": "HENRYKA SIEMIRADZKIEGO 1 ŻABKA",
    "kat": "3",
    "end_date": "12/09/2031"
  },
  {
    "id": 270,
    "lat": 51.1150302,
    "lng": 17.0666502,
    "place_id": "ChIJSbaurS3oD0cRepVyBytAPtk",
    "address": "HENRYKA SIENKIEWICZA 131 DUŻY BEN",
    "kat": "3",
    "end_date": "25/11/2031"
  },
  {
    "id": 271,
    "lat": 51.1173154,
    "lng": 17.0471381,
    "place_id": "ChIJy8Y4tubpD0cRlcqmspmr2gs",
    "address": "HENRYKA SIENKIEWICZA 24 ŻABKA",
    "kat": "3",
    "end_date": "17/06/2030"
  },
  {
    "id": 272,
    "lat": 51.1162931,
    "lng": 17.0553906,
    "place_id": "ChIJhQKjfdHpD0cR1wAF8gOEFbU",
    "address": "HENRYKA SIENKIEWICZA 45/1A",
    "kat": "1",
    "end_date": "22/03/2031"
  },
  {
    "id": 273,
    "lat": 51.0882092,
    "lng": 17.0494964,
    "place_id": "ChIJH4IWil_DD0cRTrk5Mz02aag",
    "address": "HENRYKOWSKA 2A ŻABKA",
    "kat": "3",
    "end_date": "08/11/2031"
  },
  {
    "id": 274,
    "lat": 51.1233624,
    "lng": 16.9527097,
    "place_id": "ChIJk74W09fBD0cRzC7IZYG-TkE",
    "address": "HERMANOWSKA 43 HUBA",
    "kat": "3",
    "end_date": "31/05/2022"
  },
  {
    "id": 275,
    "lat": 51.123881,
    "lng": 16.950545,
    "place_id": "ChIJ2wWHHtbBD0cRTsDLOsrd3nw",
    "address": "HERMANOWSKA 57 ŻABKA",
    "kat": "3",
    "end_date": "27/01/2030"
  },
  {
    "id": 276,
    "lat": 51.1246256,
    "lng": 16.9499557,
    "place_id": "ChIJX5YDDZTrD0cRFJSp5UNiZVY",
    "address": "HERMANOWSKA 59 POLOMARKET",
    "kat": "3",
    "end_date": "23/05/2029"
  },
  {
    "id": 277,
    "lat": 51.1253849,
    "lng": 16.948048,
    "place_id": "ChIJd15DQn_qD0cROg_C-z85MgU",
    "address": "HERMANOWSKA 89-91 (LOK. 4)",
    "kat": "3",
    "end_date": "04/08/2022"
  },
  {
    "id": 278,
    "lat": 51.0726388,
    "lng": 17.0340392,
    "place_id": "ChIJ5WnWklXCD0cR2RVbkhV_f5k",
    "address": "HIMALAJSKA 17 EFFI",
    "kat": "3",
    "end_date": "31/08/2029"
  },
  {
    "id": 279,
    "lat": 51.076478,
    "lng": 16.9600203,
    "place_id": "ChIJ2Zjpz3nBD0cRGKhSYIqB7dU",
    "address": "HONORIUSZA BALZAKA 22A",
    "kat": "3",
    "end_date": "01/07/2031"
  },
  {
    "id": 280,
    "lat": 51.0778475,
    "lng": 16.9568787,
    "place_id": "ChIJU_IOpnfBD0cRQkUCIEk6_xI",
    "address": "HONORIUSZA BALZAKA 95A IRHA",
    "kat": "3",
    "end_date": "21/11/2029"
  },
  {
    "id": 281,
    "lat": 51.1227206,
    "lng": 16.9743803,
    "place_id": "ChIJF9KX5grqD0cRQUamNGi9IKA",
    "address": "HORBACZEWSKIEGO 22 BIEDRONKA",
    "kat": "3",
    "end_date": "07/06/2022"
  },
  {
    "id": 282,
    "lat": 51.0864926,
    "lng": 17.0477631,
    "place_id": "ChIJu2IRIvXCD0cRXCOKvIQzPiQ",
    "address": "HUBSKA 102-118 AUCHAN",
    "kat": "3",
    "end_date": "06/11/2029"
  },
  {
    "id": 283,
    "lat": 51.0862983,
    "lng": 17.0462322,
    "place_id": "ChIJJRIvwd7DD0cRDEZCPIOd--s",
    "address": "HUBSKA 123A W RESTAURACJI PAN GRUZIN",
    "kat": "2",
    "end_date": "25/10/2031"
  },
  {
    "id": 284,
    "lat": 51.091919,
    "lng": 17.0440971,
    "place_id": "ChIJyTRrr2HCD0cRGYB1jrtutFA",
    "address": "HUBSKA 44-48 BROWAR MAJSTERSZTYK",
    "kat": "1",
    "end_date": "16/02/2031"
  },
  {
    "id": 285,
    "lat": 51.090034,
    "lng": 17.045215,
    "place_id": "ChIJN2r9HELDD0cRRDGZfbqdZw8",
    "address": "HUBSKA 78B DUŻY BEN",
    "kat": "3",
    "end_date": "27/06/2029"
  },
  {
    "id": 286,
    "lat": 51.089827,
    "lng": 17.0452616,
    "place_id": "ChIJ78D7vJjDD0cRfTqFnpTYI1E",
    "address": "HUBSKA 78D ŻABKA",
    "kat": "3",
    "end_date": "12/08/2031"
  },
  {
    "id": 287,
    "lat": 51.0883367,
    "lng": 17.0467561,
    "place_id": "ChIJSZe7nPjDD0cR_ZE35DPGCAs",
    "address": "HUBSKA 84-86 LIDL",
    "kat": "3",
    "end_date": "31/10/2022"
  },
  {
    "id": 288,
    "lat": 51.0861569,
    "lng": 17.0469068,
    "place_id": "ChIJ7y3a40vDD0cRk518MA5wIAU",
    "address": "HUBSKA/KAMIENNA",
    "kat": "3",
    "end_date": "12/06/2022"
  },
  {
    "id": 289,
    "lat": 51.1013559,
    "lng": 17.0360137,
    "place_id": "Ei5Lb8WCxYLEhXRhamEgMTEvMTIvMWEsIDUwLTQzOCBXcm9jxYJhdywgUG9sYW5kIh4aHAoWChQKEgltJkoXcMIPRxFx6xF16vlEdBICMWE",
    "address": "HUGONA KOŁŁĄTAJA 11/12/1A ŻABKA",
    "kat": "3",
    "end_date": "08/02/2024"
  },
  {
    "id": 290,
    "lat": 51.1013559,
    "lng": 17.0360137,
    "place_id": "Ei5Lb8WCxYLEhXRhamEgMTEvMTIvMWMsIDUwLTQzOCBXcm9jxYJhdywgUG9sYW5kIh4aHAoWChQKEgltJkoXcMIPRxFx6xF16vlEdBICMWM",
    "address": "HUGONA KOŁŁĄTAJA 11/12/1C",
    "kat": "3",
    "end_date": "27/05/2031"
  },
  {
    "id": 291,
    "lat": 51.1008516,
    "lng": 17.0363539,
    "place_id": "EitLb8WCxYLEhXRhamEgMjIvMWEsIDUwLTQzOCBXcm9jxYJhdywgUG9sYW5kIh4aHAoWChQKEgmpTIMDcMIPRxFpoqH8eWjiEhICMWE",
    "address": "HUGONA KOŁŁĄTAJA 22/1A NA TERENIE BARU",
    "kat": "1",
    "end_date": "12/04/2031"
  },
  {
    "id": 292,
    "lat": 51.1021993,
    "lng": 17.0371461,
    "place_id": "ChIJw8_pcXDCD0cRLBKJoTuZymg",
    "address": "HUGONA KOŁŁĄTAJA 27/28 KAJTEK",
    "kat": "3",
    "end_date": "28/02/2031"
  },
  {
    "id": 293,
    "lat": 51.081467,
    "lng": 16.9556725,
    "place_id": "ChIJk169653BD0cRXZUNJvZC-cM",
    "address": "IBN SINY AWICENNY 47 STACJA PALIW",
    "kat": "3",
    "end_date": "02/06/2031"
  },
  {
    "id": 294,
    "lat": 51.08055,
    "lng": 16.9564865,
    "place_id": "ChIJqylk7MrBD0cR93m8NjfvK3g",
    "address": "IBN SINY AWICENNY 51 BIEDRONKA",
    "kat": "3",
    "end_date": "14/02/2032"
  },
  {
    "id": 295,
    "lat": 51.0997703,
    "lng": 17.0081275,
    "place_id": "ChIJZSCIdpjDD0cR3AyJoFnnz8w",
    "address": "ICCHAKA LEJBA PERECA 12/1B DUŻY BEN",
    "kat": "3",
    "end_date": "14/01/2030"
  },
  {
    "id": 296,
    "lat": 51.0997359,
    "lng": 17.0075445,
    "place_id": "ChIJ5RJHzBDCD0cRu-jr4DSHtcc",
    "address": "ICCHAKA LEJBA PERECA 15",
    "kat": "3",
    "end_date": "14/05/2029"
  },
  {
    "id": 297,
    "lat": 51.099662,
    "lng": 17.007563,
    "place_id": "ChIJ5RJHzBDCD0cRP7dvNJzN8Jg",
    "address": "ICCHAKA LEJBA PERECA 15/1B ŻABKA",
    "kat": "3",
    "end_date": "27/12/2031"
  },
  {
    "id": 298,
    "lat": 51.1003371,
    "lng": 17.0084408,
    "place_id": "ChIJET972xDCD0cR3K1CIKFLDNQ",
    "address": "ICCHAKA LEJBA PERECA 4/6 TWÓJ SKLEP",
    "kat": "3",
    "end_date": "12/07/2029"
  },
  {
    "id": 299,
    "lat": 51.143115,
    "lng": 17.0506179,
    "place_id": "ChIJLw9M76LpD0cR0fI-Om2la_4",
    "address": "IGNACEGO CHRZANOWSKIEGO 15B ŻABKA",
    "kat": "3",
    "end_date": "10/01/2032"
  },
  {
    "id": 300,
    "lat": 51.1254063,
    "lng": 17.0497099,
    "place_id": "ChIJf3gS2MXpD0cRexSGLCiv_Jg",
    "address": "IGNACEGO DASZYŃSKIEGO 19/1 PIWOTEKA",
    "kat": "3",
    "end_date": "01/04/2029"
  },
  {
    "id": 301,
    "lat": 51.125275,
    "lng": 17.0524099,
    "place_id": "ChIJmf2-AMbpD0cRuJwB29q8otY",
    "address": "IGNACEGO DASZYŃSKIEGO 30/1 DINO DELIKATESY SC",
    "kat": "3",
    "end_date": "02/03/2030"
  },
  {
    "id": 302,
    "lat": 51.1449551,
    "lng": 17.1322735,
    "place_id": "ChIJHdVbhoboD0cR3_MiyULeucA",
    "address": "INFLANCKA 4 M&M",
    "kat": "1",
    "end_date": "05/07/2029"
  },
  {
    "id": 304,
    "lat": 51.116718,
    "lng": 17.015542,
    "place_id": "ChIJxSa-0-LpD0cRRGy89_jSTGQ",
    "address": "INOWROCŁAWSKA 37",
    "kat": "3",
    "end_date": "13/02/2030"
  },
  {
    "id": 305,
    "lat": 51.1170755,
    "lng": 17.0158159,
    "place_id": "ChIJ0bDJKv3pD0cRtU_K7CZ_30k",
    "address": "INOWROCŁAWSKA 39D ŻABKA",
    "kat": "3",
    "end_date": "15/03/2032"
  },
  {
    "id": 306,
    "lat": 51.0949604,
    "lng": 16.9911912,
    "place_id": "ChIJawQ9tyHCD0cRhKEtPwr1K40",
    "address": "INŻYNIERSKA 19",
    "kat": "3",
    "end_date": "19/03/2022"
  },
  {
    "id": 307,
    "lat": 51.0956015,
    "lng": 16.9885775,
    "place_id": "ChIJa_FBQCDCD0cRq0Hb3FyqvKk",
    "address": "INŻYNIERSKA 43/U16 ŻABKA",
    "kat": "3",
    "end_date": "10/03/2029"
  },
  {
    "id": 308,
    "lat": 51.095438,
    "lng": 16.987269,
    "place_id": "ChIJfbVAciDCD0cR8MwSOtXQiNM",
    "address": "INŻYNIERSKA 51/U30 ŻABKA",
    "kat": "3",
    "end_date": "27/12/2030"
  },
  {
    "id": 309,
    "lat": 51.0928648,
    "lng": 16.9844235,
    "place_id": "ChIJRUo6BorBD0cRakPXNKrhG1A",
    "address": "INŻYNIERSKA 66 TRELE MORELE",
    "kat": "1",
    "end_date": "23/06/2030"
  },
  {
    "id": 310,
    "lat": 51.079469,
    "lng": 17.039839,
    "place_id": "ChIJsWtEzVnCD0cR1VCYIlLvTJ0",
    "address": "JABŁECZNA 27/29 ŻABKA",
    "kat": "3",
    "end_date": "22/08/2031"
  },
  {
    "id": 311,
    "lat": 51.079545,
    "lng": 17.0397412,
    "place_id": "ChIJXwrvCVjCD0cR5InXgpvXbPA",
    "address": "JABŁECZNA 29",
    "kat": "3",
    "end_date": "21/12/2029"
  },
  {
    "id": 312,
    "lat": 51.1038752,
    "lng": 17.1112715,
    "place_id": "ChIJa8edaAHoD0cRYW4e8Ukt-ws",
    "address": "JACKOWSKIEGO 57",
    "kat": "3",
    "end_date": "07/02/2029"
  },
  {
    "id": 313,
    "lat": 51.1334303,
    "lng": 17.0599749,
    "place_id": "ChIJQWD0FozpD0cRMP1nL7_i3JE",
    "address": "JANA DŁUGOSZA 14 ALDI",
    "kat": "3",
    "end_date": "17/03/2030"
  },
  {
    "id": 314,
    "lat": 51.1370673,
    "lng": 17.0674562,
    "place_id": "ChIJx4r3Yw_pD0cR4ddFDY_6fDU",
    "address": "JANA DŁUGOSZA 74 KAUFLAND",
    "kat": "3",
    "end_date": "27/01/2029"
  },
  {
    "id": 315,
    "lat": 51.1187754,
    "lng": 17.0399384,
    "place_id": "ChIJv8JiftzpD0cRcsDqKGQIXRA",
    "address": "JANA KILIŃSKIEGO 30 ŻABKA",
    "kat": "3",
    "end_date": "24/06/2030"
  },
  {
    "id": 316,
    "lat": 51.1195327,
    "lng": 17.0396127,
    "place_id": "ChIJcwIMjtzpD0cRW2GM9-Le2iw",
    "address": "JANA KILIŃSKIEGO 31 DUŻY BEN",
    "kat": "3",
    "end_date": "12/11/2030"
  },
  {
    "id": 317,
    "lat": 51.0818801,
    "lng": 17.0119379,
    "place_id": "ChIJ3TxBbEjCD0cRrcsUyweFTNk",
    "address": "JANUSZOWICKA 17-19 DELIKATESY CENTRUM",
    "kat": "3",
    "end_date": "10/07/2030"
  },
  {
    "id": 318,
    "lat": 51.1230531,
    "lng": 17.0560357,
    "place_id": "ChIJpWTc587pD0cRdi5HAjyAOYs",
    "address": "JARACZA 23",
    "kat": "3",
    "end_date": "07/04/2022"
  },
  {
    "id": 319,
    "lat": 51.1270578,
    "lng": 17.0574561,
    "place_id": "ChIJN9uSVcjpD0cRtd3utB1I8vw",
    "address": "JARACZA 82A DELIKATESY RABAT",
    "kat": "3",
    "end_date": "26/09/2022"
  },
  {
    "id": 320,
    "lat": 51.0659359,
    "lng": 17.0329356,
    "place_id": "ChIJZTodiwDDD0cRe3bk4uGGllw",
    "address": "JASIENICY 1",
    "kat": "3",
    "end_date": "09/07/2029"
  },
  {
    "id": 321,
    "lat": 51.122493,
    "lng": 17.0443292,
    "place_id": "ChIJJXCNUlfpD0cR57zKrY1xTCY",
    "address": "JEDNOŚCI NARODOWEJ 101/1A WINO I SER",
    "kat": "2",
    "end_date": "28/04/2031"
  },
  {
    "id": 322,
    "lat": 51.122552,
    "lng": 17.044354,
    "place_id": "ChIJdQ2glsTpD0cRWX4fQ_4oRsg",
    "address": "JEDNOŚCI NARODOWEJ 101/1B PINTA PIWA 2.0",
    "kat": "2",
    "end_date": "12/07/2031"
  },
  {
    "id": 323,
    "lat": 51.1224789,
    "lng": 17.0438773,
    "place_id": "ChIJK-TimcTpD0cRxuNKMjc3tAs",
    "address": "JEDNOŚCI NARODOWEJ 108/1A LEWIATAN",
    "kat": "1",
    "end_date": "25/08/2022"
  },
  {
    "id": 324,
    "lat": 51.1258881,
    "lng": 17.0460715,
    "place_id": "ChIJzX8CHcTpD0cRkYqn9w7SS6o",
    "address": "JEDNOŚCI NARODOWEJ 146C ŻABKA",
    "kat": "3",
    "end_date": "26/07/2030"
  },
  {
    "id": 325,
    "lat": 51.1269583,
    "lng": 17.0463788,
    "place_id": "ChIJ0ZuSo8bpD0cRuHiAWL8_ci0",
    "address": "JEDNOŚCI NARODOWEJ 156 STACJA PALIW 533",
    "kat": "3",
    "end_date": "08/09/2030"
  },
  {
    "id": 326,
    "lat": 51.1293078,
    "lng": 17.0540073,
    "place_id": "ChIJPyPc9xfpD0cRxKlKcQ-NZM8",
    "address": "JEDNOŚCI NARODOWEJ 242A DUŻY BEN",
    "kat": "3",
    "end_date": "22/08/2031"
  },
  {
    "id": 327,
    "lat": 51.1187879,
    "lng": 17.0383119,
    "place_id": "ChIJHeRmXtzpD0cR2GBT2EHDjdA",
    "address": "JEDNOŚCI NARODOWEJ 45A",
    "kat": "3",
    "end_date": "01/06/2031"
  },
  {
    "id": 328,
    "lat": 51.118328,
    "lng": 17.037232,
    "place_id": "ChIJqy0KT9zpD0cROaOBihCESd4",
    "address": "JEDNOŚCI NARODOWEJ 46/1A ŻABKA",
    "kat": "3",
    "end_date": "29/02/2032"
  },
  {
    "id": 329,
    "lat": 51.120061,
    "lng": 17.040117,
    "place_id": "ChIJI6mvl9zpD0cRyQ2jU0GHrK8",
    "address": "JEDNOŚCI NARODOWEJ 61/1A ŻABKA",
    "kat": "3",
    "end_date": "27/04/2022"
  },
  {
    "id": 330,
    "lat": 51.1203726,
    "lng": 17.0405619,
    "place_id": "ChIJy3YTkarpD0cRCakLA0AHr0U",
    "address": "JEDNOŚCI NARODOWEJ 67 BARSZCZ UKRAIŃSKI",
    "kat": "3",
    "end_date": "06/05/2031"
  },
  {
    "id": 331,
    "lat": 51.120008,
    "lng": 17.039538,
    "place_id": "ChIJ8UwDldzpD0cRYUHXKqjEUuA",
    "address": "JEDNOŚCI NARODOWEJ 72-80 BIEDRONKA",
    "kat": "3",
    "end_date": "21/07/2030"
  },
  {
    "id": 332,
    "lat": 51.120781,
    "lng": 17.041372,
    "place_id": "EjJKZWRub8WbY2kgTmFyb2Rvd2VqIDc1LzFkLCA1MC0yNjEgV3JvY8WCYXcsIFBvbGFuZCIeGhwKFgoUChIJv0XIqNzpD0cRZ20QiZoGyTgSAjFk",
    "address": "JEDNOŚCI NARODOWEJ 75/1D PIWOTEKA",
    "kat": "3",
    "end_date": "01/12/2030"
  },
  {
    "id": 333,
    "lat": 51.1223403,
    "lng": 17.0441646,
    "place_id": "ChIJ0-19h8TpD0cR0nZ8_vaZtPk",
    "address": "JEDNOŚCI NARODOWEJ 97/1 ŻABKA",
    "kat": "3",
    "end_date": "21/06/2030"
  },
  {
    "id": 334,
    "lat": 51.121905,
    "lng": 17.0432539,
    "place_id": "EjJKZWRub8WbY2kgTmFyb2Rvd2VqIDk4LzFjLCA1MC0zMDEgV3JvY8WCYXcsIFBvbGFuZCIeGhwKFgoUChIJm4hYpMTpD0cRnvtMVGPTwY8SAjFj",
    "address": "JEDNOŚCI NARODOWEJ 98/1C",
    "kat": "3",
    "end_date": "23/05/2022"
  },
  {
    "id": 335,
    "lat": 51.0966606,
    "lng": 17.009403,
    "place_id": "ChIJZ7PQixbCD0cRRnFKTntd9qM",
    "address": "JEMIOŁOWA 42/1U T&J",
    "kat": "3",
    "end_date": "27/03/2031"
  },
  {
    "id": 336,
    "lat": 51.0957993,
    "lng": 17.0084168,
    "place_id": "ChIJw9zRaRbCD0cRtlK2eag3YR8",
    "address": "JEMIOŁOWA 50/54",
    "kat": "3",
    "end_date": "22/09/2022"
  },
  {
    "id": 339,
    "lat": 51.127381,
    "lng": 16.964422,
    "place_id": "ChIJo5mBzHbqD0cRWb7bvVWz3IQ",
    "address": "JERZEGO BAJANA 24C ŻABKA",
    "kat": "3",
    "end_date": "09/12/2031"
  },
  {
    "id": 340,
    "lat": 51.1262673,
    "lng": 16.9631747,
    "place_id": "ChIJKVFF3XbqD0cR9ks1cgWla6Y",
    "address": "JERZEGO BAJANA 32A",
    "kat": "3",
    "end_date": "06/11/2029"
  },
  {
    "id": 341,
    "lat": 51.127638,
    "lng": 16.961842,
    "place_id": "Ei1KZXJ6ZWdvIEJhamFuYSA0My8xYSwgNTQtMTI5IFdyb2PFgmF3LCBQb2xhbmQiHhocChYKFAoSCS0ZqTN36g9HEb56Fl0wrJMKEgIxYQ",
    "address": "JERZEGO BAJANA 43/1A DELIKATESY GROSZEK",
    "kat": "3",
    "end_date": "13/02/2030"
  },
  {
    "id": 342,
    "lat": 51.127638,
    "lng": 16.961842,
    "place_id": "Ei1KZXJ6ZWdvIEJhamFuYSA0My8xZCwgNTQtMTI5IFdyb2PFgmF3LCBQb2xhbmQiHhocChYKFAoSCS0ZqTN36g9HEb56Fl0wrJMKEgIxZA",
    "address": "JERZEGO BAJANA 43/1C I 1D ŻABKA",
    "kat": "3",
    "end_date": "31/08/2030"
  },
  {
    "id": 343,
    "lat": 51.0717239,
    "lng": 17.0339654,
    "place_id": "ChIJO18D4pvDD0cRJipKv7glVDQ",
    "address": "JERZEGO KUKUCZKI 5/2 ŻABKA",
    "kat": "3",
    "end_date": "24/01/2032"
  },
  {
    "id": 344,
    "lat": 51.0716954,
    "lng": 17.0346478,
    "place_id": "ChIJTW-4qdLDD0cRq-Buz2gE7nI",
    "address": "JERZEGO KUKUCZKI 7/U2 DUŻY BEN",
    "kat": "3",
    "end_date": "15/01/2030"
  },
  {
    "id": 345,
    "lat": 51.1203923,
    "lng": 16.8730558,
    "place_id": "ChIJgwYdb_a_D0cRcEAIDFJKJwA",
    "address": "JERZMANOWSKA 102",
    "kat": "3",
    "end_date": "06/09/2031"
  },
  {
    "id": 346,
    "lat": 51.1206616,
    "lng": 16.8657504,
    "place_id": "ChIJia3EYfG_D0cR9xmvHuS6DpI",
    "address": "JERZMANOWSKA 127A",
    "kat": "3",
    "end_date": "18/07/2029"
  },
  {
    "id": 347,
    "lat": 51.1208035,
    "lng": 16.8647306,
    "place_id": "ChIJp-nWffG_D0cRP2GOtDLMwHY",
    "address": "JERZMANOWSKA 131 U BADYLA",
    "kat": "1",
    "end_date": "22/06/2022"
  },
  {
    "id": 348,
    "lat": 51.0877939,
    "lng": 17.0540057,
    "place_id": "ChIJ_w2FsIzCD0cRKVU5emGyz2Q",
    "address": "JESIONOWA 43/u4",
    "kat": "3",
    "end_date": "26/05/2029"
  },
  {
    "id": 349,
    "lat": 51.1029156,
    "lng": 17.0225825,
    "place_id": "EiZMZWxld2VsYSA0QS8xLCA1My01MDUgV3JvY8WCYXcsIFBvbGFuZCIdGhsKFgoUChIJHXW5VA3CD0cRZlyRZ72y5ToSATE",
    "address": "JOACHIMA LELEWELA 4A/LOK.1 ŻABKA",
    "kat": "3",
    "end_date": "28/10/2030"
  },
  {
    "id": 350,
    "lat": 51.0949477,
    "lng": 17.037069,
    "place_id": "EixKb2Fubml0w7N3ICYgRGF3aWRhLCA1MC01MjUgV3JvY8WCYXcsIFBvbGFuZCJmImQKFAoSCVWTJn9mwg9HEVia5hZ7C_oOEhQKEglVkyZ_ZsIPRxFYmuYWewv6DhoUChIJLy2W12XCD0cREfuQlJv-t3IaFAoSCZ9Ik69mwg9HEUzgf74A0lYfIgoNZXh0HhWCpicK",
    "address": "JOANITÓW RÓG DAWIDA",
    "kat": "1",
    "end_date": "14/05/2022"
  },
  {
    "id": 351,
    "lat": 51.1082546,
    "lng": 17.0557775,
    "place_id": "ChIJ7Qwl9X_CD0cRRPwvOKMcL_Q",
    "address": "JÓZEFA MARII HOENE-WROŃSKIEGO 18",
    "kat": "3",
    "end_date": "28/02/2031"
  },
  {
    "id": 352,
    "lat": 51.1363875,
    "lng": 17.0234729,
    "place_id": "ChIJJw-g4YzpD0cRMGbvopypXOA",
    "address": "JUGOSŁOWIAŃSKA 65C ŻABKA",
    "kat": "3",
    "end_date": "27/02/2030"
  },
  {
    "id": 353,
    "lat": 51.0961874,
    "lng": 16.9345041,
    "place_id": "ChIJRZWburHBD0cRX2yBC1HlRV8",
    "address": "JURIJA GAGARINA 19 BIEDRONKA",
    "kat": "3",
    "end_date": "04/10/2022"
  },
  {
    "id": 354,
    "lat": 51.095744,
    "lng": 16.9342613,
    "place_id": "ChIJ_2xduLHBD0cRN_HSg9CefYY",
    "address": "JURIJA GAGARINA 21 LIDL",
    "kat": "3",
    "end_date": "06/06/2029"
  },
  {
    "id": 355,
    "lat": 51.0945359,
    "lng": 16.9333652,
    "place_id": "ChIJGbh3rbHBD0cRENo4Udpmd7I",
    "address": "JURIJA GAGARINA 27 ROSSMANN (LOK. 0.05)",
    "kat": "2",
    "end_date": "25/02/2030"
  },
  {
    "id": 356,
    "lat": 51.0944719,
    "lng": 16.9336331,
    "place_id": "ChIJkZ_rPSvBD0cR_t9TftvcnW4",
    "address": "JURIJA GAGARINA 27/7 ŻABKA",
    "kat": "3",
    "end_date": "30/08/2030"
  },
  {
    "id": 357,
    "lat": 51.097973,
    "lng": 16.937272,
    "place_id": "ChIJPyIy2bDBD0cRRt3HzLi9VMc",
    "address": "JURIJA GAGARINA 4 ŻABKA",
    "kat": "3",
    "end_date": "09/03/2032"
  },
  {
    "id": 358,
    "lat": 51.0880265,
    "lng": 17.0384618,
    "place_id": "ChIJ2VOQbF7CD0cRX8qjh4SFqHs",
    "address": "KAMIENNA 104",
    "kat": "3",
    "end_date": "30/06/2031"
  },
  {
    "id": 359,
    "lat": 51.0847907,
    "lng": 17.0479184,
    "place_id": "ChIJ5RRPYiHDD0cRmyb1qJNrPnQ",
    "address": "KAMIENNA 145",
    "kat": "3",
    "end_date": "20/09/2022"
  },
  {
    "id": 360,
    "lat": 51.1533536,
    "lng": 17.0441762,
    "place_id": "ChIJKc8BIXbpD0cRZRshwcLardA",
    "address": "KAMIEŃSKIEGO 207/U1",
    "kat": "3",
    "end_date": "30/03/2029"
  },
  {
    "id": 361,
    "lat": 51.1544121,
    "lng": 17.044354,
    "place_id": "ChIJN30vlZ3pD0cRu6cp0GCCbuo",
    "address": "KAMIEŃSKIEGO 217/U2 ALIGATOR",
    "kat": "3",
    "end_date": "08/04/2030"
  },
  {
    "id": 362,
    "lat": 51.1592525,
    "lng": 17.0444849,
    "place_id": "ChIJ2UFaxnDpD0cRCGO-Cc_3f9I",
    "address": "KAMIEŃSKIEGO 242B/1",
    "kat": "3",
    "end_date": "04/02/2029"
  },
  {
    "id": 363,
    "lat": 51.14676,
    "lng": 17.04121,
    "place_id": "ChIJD6PbwpvpD0cRSs29Hh8juFw",
    "address": "KAMIEŃSKIEGO 92-102",
    "kat": "3",
    "end_date": "05/09/2022"
  },
  {
    "id": 364,
    "lat": 51.1730964,
    "lng": 16.9138261,
    "place_id": "EidLYXJjemVtbmEgMS8xYywgNTQtMDY3IFdyb2PFgmF3LCBQb2xhbmQiHhocChYKFAoSCcMuZXAq6w9HEUqy5zuQ7S6SEgIxYw",
    "address": "KARCZEMNA 1,1A,1B,1C,3 DINO",
    "kat": "3",
    "end_date": "15/11/2030"
  },
  {
    "id": 365,
    "lat": 51.124567,
    "lng": 17.053662,
    "place_id": "ChIJa7VdSc_pD0cRHkgu5_oFUIk",
    "address": "KARDYNAŁA STEFANA WYSZYŃSKIEGO 118/1 ŻABKA",
    "kat": "3",
    "end_date": "27/07/2031"
  },
  {
    "id": 366,
    "lat": 51.116267,
    "lng": 17.051625,
    "place_id": "ChIJe775GtHpD0cRDsAuFrWrKX8",
    "address": "KARDYNAŁA STEFANA WYSZYŃSKIEGO 45/LOK. C ŻABKA",
    "kat": "3",
    "end_date": "10/12/2029"
  },
  {
    "id": 367,
    "lat": 51.1164792,
    "lng": 17.0516315,
    "place_id": "ChIJaRg7tDPpD0cR8hkREkHc6wk",
    "address": "KARDYNAŁA STEFANA WYSZYŃSKIEGO 45D DUŻY BEN",
    "kat": "3",
    "end_date": "11/10/2031"
  },
  {
    "id": 368,
    "lat": 51.1184707,
    "lng": 17.050949,
    "place_id": "ChIJC3kLR9DpD0cR1VbwHqwczRU",
    "address": "KARDYNAŁA WYSZYŃSKIEGO 68",
    "kat": "3",
    "end_date": "01/09/2030"
  },
  {
    "id": 369,
    "lat": 51.0695041,
    "lng": 16.9701256,
    "place_id": "ChIJdSKHxNfDD0cRZ0VtPcdh7js",
    "address": "KARMELKOWA 66",
    "kat": "2",
    "end_date": "04/03/2030"
  },
  {
    "id": 370,
    "lat": 51.125705,
    "lng": 17.052345,
    "place_id": "ChIJcRVsA8bpD0cR-IwvgJcQ1IM",
    "address": "KAROLA MIARKI 5/A ŻABKA",
    "kat": "3",
    "end_date": "21/12/2030"
  },
  {
    "id": 371,
    "lat": 51.1016848,
    "lng": 17.0963929,
    "place_id": "ChIJoTFteqfCD0cRM03jRLNkUv8",
    "address": "KAROLA OLSZEWSKIEGO 23B LITTA",
    "kat": "1",
    "end_date": "06/05/2031"
  },
  {
    "id": 372,
    "lat": 51.1561007,
    "lng": 17.1319224,
    "place_id": "ChIJW5NG05DoD0cRRYFpOeHTo4A",
    "address": "KASZTELAŃSKA 2",
    "kat": "3",
    "end_date": "25/03/2030"
  },
  {
    "id": 373,
    "lat": 51.1215781,
    "lng": 17.0376705,
    "place_id": "ChIJdREhLN3pD0cR34MesdxjxQA",
    "address": "KAZIMIERZA JAGIELLOŃCZYKA 31",
    "kat": "3",
    "end_date": "15/02/2031"
  },
  {
    "id": 374,
    "lat": 51.1100061,
    "lng": 17.0261259,
    "place_id": "ChIJfQHUJwvCD0cRSd0ihElGV8c",
    "address": "KAZIMIERZA WIELKIEGO 9-13/LOK. 2 ŻABKA",
    "kat": "3",
    "end_date": "07/02/2030"
  },
  {
    "id": 375,
    "lat": 51.144315,
    "lng": 17.0321915,
    "place_id": "ChIJJxs6UYXpD0cRca6Q_RUL-hY",
    "address": "KĘPIŃSKA 1 LIDL",
    "kat": "3",
    "end_date": "05/08/2031"
  },
  {
    "id": 376,
    "lat": 51.111906,
    "lng": 17.0297069,
    "place_id": "ChIJg_2KKXLCD0cR0r-X8p0Sk20",
    "address": "KIEŁBAŚNICZA 24/6 OLD HAVANA",
    "kat": "3",
    "end_date": "26/05/2031"
  },
  {
    "id": 377,
    "lat": 51.110926,
    "lng": 17.029461,
    "place_id": "ChIJR10c24DDD0cRDMj70dRqjwg",
    "address": "KIEŁBAŚNICZA 27 ŻABKA",
    "kat": "3",
    "end_date": "07/02/2031"
  },
  {
    "id": 378,
    "lat": 51.1447093,
    "lng": 17.1378144,
    "place_id": "ChIJPbFb4IPoD0cR0wX7HiObt18",
    "address": "KIEŁCZOWSKA 137A BIEDRONKA",
    "kat": "3",
    "end_date": "08/05/2022"
  },
  {
    "id": 379,
    "lat": 51.1450015,
    "lng": 17.137968,
    "place_id": "ChIJNays54PoD0cRCNvvnFnRCxw",
    "address": "KIEŁCZOWSKA 149-151",
    "kat": "3",
    "end_date": "06/02/2032"
  },
  {
    "id": 380,
    "lat": 51.1468226,
    "lng": 17.1234544,
    "place_id": "ChIJCzN_tY7oD0cRqCBt7_nTe70",
    "address": "KIEŁCZOWSKA 42",
    "kat": "3",
    "end_date": "28/07/2029"
  },
  {
    "id": 381,
    "lat": 51.146482,
    "lng": 17.1332747,
    "place_id": "ChIJA0FDNYToD0cRjLpLHEa0dlg",
    "address": "KIEŁCZOWSKA 64C",
    "kat": "3",
    "end_date": "30/04/2029"
  },
  {
    "id": 382,
    "lat": 51.146279,
    "lng": 17.1339804,
    "place_id": "ChIJG2tMMYToD0cRyUvyCF8TUfU",
    "address": "KIEŁCZOWSKA 66D BIEDRONKA",
    "kat": "3",
    "end_date": "11/02/2032"
  },
  {
    "id": 383,
    "lat": 51.147034,
    "lng": 17.13641,
    "place_id": "ChIJbwm5b4ToD0cR7USuaQCaDn0",
    "address": "KIEŁCZOWSKA 68B",
    "kat": "2",
    "end_date": "03/04/2030"
  },
  {
    "id": 384,
    "lat": 51.1481546,
    "lng": 17.1375239,
    "place_id": "ChIJeUWKCoToD0cRbOzoFNy-dE8",
    "address": "KIEŁCZOWSKA 74 NETTO",
    "kat": "3",
    "end_date": "11/09/2022"
  },
  {
    "id": 385,
    "lat": 51.1457838,
    "lng": 17.138983,
    "place_id": "ChIJBzMOv4PoD0cRrmwy0KLwJu0",
    "address": "KIEŁCZOWSKA 76 STACJA PALIW LOTOS",
    "kat": "3",
    "end_date": "13/05/2030"
  },
  {
    "id": 386,
    "lat": 51.106218,
    "lng": 16.969599,
    "place_id": "ChIJf8rXSunBD0cRP305Pg_TZ3U",
    "address": "KLECIŃSKA 138",
    "kat": "3",
    "end_date": "10/02/2032"
  },
  {
    "id": 387,
    "lat": 51.1268342,
    "lng": 17.0337863,
    "place_id": "ChIJ7wD9nenpD0cROs5BSwfsZdI",
    "address": "KLECZKOWSKA 11/1A BARTO",
    "kat": "3",
    "end_date": "03/09/2030"
  },
  {
    "id": 388,
    "lat": 51.12685,
    "lng": 17.033268,
    "place_id": "ChIJx1UBdOnpD0cRqIv8eaQHxqM",
    "address": "KLECZKOWSKA 15/1A ŻABKA",
    "kat": "3",
    "end_date": "29/03/2031"
  },
  {
    "id": 389,
    "lat": 51.1269237,
    "lng": 17.0280662,
    "place_id": "ChIJnyROwu7pD0cRviBUgVQHAck",
    "address": "KLECZKOWSKA 48/1B ŻABKA",
    "kat": "3",
    "end_date": "18/11/2031"
  },
  {
    "id": 390,
    "lat": 51.1224932,
    "lng": 17.0461517,
    "place_id": "ChIJqWTg5MTpD0cRBxVHa86CZWM",
    "address": "KLUCZBORSKA 15",
    "kat": "3",
    "end_date": "07/12/2022"
  },
  {
    "id": 391,
    "lat": 51.1224194,
    "lng": 17.0474724,
    "place_id": "ChIJJZlCG8XpD0cR0-1vHZSVJso",
    "address": "KLUCZBORSKA 25",
    "kat": "3",
    "end_date": "26/06/2022"
  },
  {
    "id": 392,
    "lat": 51.1014222,
    "lng": 17.0228052,
    "place_id": "ChIJwb0tRm3CD0cRmiS731x-4QI",
    "address": "KOLEJOWA 14/16 W PIZZERII FAM",
    "kat": "2",
    "end_date": "07/03/2032"
  },
  {
    "id": 393,
    "lat": 51.1014222,
    "lng": 17.0228052,
    "place_id": "ChIJwb0tRm3CD0cRrbWw9R1CBgg",
    "address": "KOLEJOWA 14/16 W PIZZERII LA FAMIGILIA",
    "kat": "1",
    "end_date": "08/04/2031"
  },
  {
    "id": 394,
    "lat": 51.1028557,
    "lng": 17.0172003,
    "place_id": "ChIJZYchchLCD0cRIdBMSsIbFzo",
    "address": "KOLEJOWA 48A",
    "kat": "3",
    "end_date": "27/06/2022"
  },
  {
    "id": 395,
    "lat": 51.13545,
    "lng": 16.9741569,
    "place_id": "ChIJW_bDQWzqD0cRomoSzsTNlgs",
    "address": "KOLISTA 8",
    "kat": "3",
    "end_date": "31/08/2030"
  },
  {
    "id": 396,
    "lat": 51.1033693,
    "lng": 17.0374391,
    "place_id": "ChIJZxDEjnDCD0cRwBupZUObXwo",
    "address": "KOŁŁĄTAJA 34 HUGO",
    "kat": "3",
    "end_date": "04/04/2029"
  },
  {
    "id": 397,
    "lat": 51.0927263,
    "lng": 17.0253108,
    "place_id": "ChIJ3SZB7WnCD0cR59P_2wJW1qw",
    "address": "KOMANDORSKA 147",
    "kat": "3",
    "end_date": "11/01/2032"
  },
  {
    "id": 398,
    "lat": 51.0931498,
    "lng": 17.0255126,
    "place_id": "ChIJPXsNkmnCD0cRmhHsyd8ZcW8",
    "address": "KOMANDORSKA 147 BIEDRONKA",
    "kat": "3",
    "end_date": "29/11/2030"
  },
  {
    "id": 399,
    "lat": 51.093069,
    "lng": 17.0253999,
    "place_id": "ChIJPXsNkmnCD0cRtF1iQ1p0LTY",
    "address": "KOMANDORSKA 147 DELIKATESY CENTRUM",
    "kat": "3",
    "end_date": "24/06/2030"
  },
  {
    "id": 400,
    "lat": 51.0986111,
    "lng": 17.0283333,
    "place_id": "ChIJP6M0m27CD0cRf2wSSA1INO4",
    "address": "KOMANDORSKA 21 EPI",
    "kat": "3",
    "end_date": "27/12/2030"
  },
  {
    "id": 401,
    "lat": 51.094745,
    "lng": 17.0276744,
    "place_id": "ChIJ9boWFWnCD0cRTf5KFpB9WZw",
    "address": "KOMANDORSKA 66 145,146,147 I 148",
    "kat": "3",
    "end_date": "02/07/2030"
  },
  {
    "id": 402,
    "lat": 51.099827,
    "lng": 17.031082,
    "place_id": "ChIJ45wCfBzDD0cRcNZO2a48hgw",
    "address": "KOMANDORSKA 8-12 ŻABKA",
    "kat": "3",
    "end_date": "05/08/2030"
  },
  {
    "id": 403,
    "lat": 51.171561,
    "lng": 17.0042296,
    "place_id": "ChIJxcuZlcfrD0cRRxRVikB4TpE",
    "address": "KOMINIARSKA 42",
    "kat": "3",
    "end_date": "28/04/2022"
  },
  {
    "id": 404,
    "lat": 51.102446,
    "lng": 17.04439,
    "place_id": "ChIJf5kAnHvCD0cRTrr5KuOu1GQ",
    "address": "KOMUNY PARYSKIEJ 23",
    "kat": "3",
    "end_date": "18/10/2029"
  },
  {
    "id": 405,
    "lat": 51.1017061,
    "lng": 17.0466086,
    "place_id": "ChIJR7VZfXzCD0cR3bgEFDox_uU",
    "address": "KOMUNY PARYSKIEJ 43 KONKRET LOK.1A",
    "kat": "3",
    "end_date": "23/05/2022"
  },
  {
    "id": 406,
    "lat": 51.1004692,
    "lng": 17.0488675,
    "place_id": "ChIJYWvoAn3CD0cRyxyiKWHUXJA",
    "address": "KOMUNY PARYSKIEJ 72",
    "kat": "3",
    "end_date": "07/11/2029"
  },
  {
    "id": 407,
    "lat": 51.099577,
    "lng": 17.050525,
    "place_id": "ChIJiWX8bvzDD0cRUNfRRycGfIY",
    "address": "KOMUNY PARYSKIEJ 83A ŻABKA",
    "kat": "3",
    "end_date": "28/05/2030"
  },
  {
    "id": 408,
    "lat": 51.058182,
    "lng": 17.08683,
    "place_id": "ChIJoVfhxZzDD0cRsZqnJEywZ0E",
    "address": "KOREAŃSKA 2A ŻABKA",
    "kat": "3",
    "end_date": "14/04/2029"
  },
  {
    "id": 409,
    "lat": 51.1774907,
    "lng": 17.0039769,
    "place_id": "ChIJZSoA4GrrD0cRpvawPwL640I",
    "address": "KORZENNA 17 ŻABKA",
    "kat": "3",
    "end_date": "10/02/2032"
  },
  {
    "id": 410,
    "lat": 51.14296,
    "lng": 16.892216,
    "place_id": "ChIJ1T4LZq3qD0cR7gmR2YNyCww",
    "address": "KOSMONAUTÓW 222A",
    "kat": "3",
    "end_date": "22/10/2031"
  },
  {
    "id": 411,
    "lat": 51.1451382,
    "lng": 16.8811371,
    "place_id": "ChIJgV-6IU6VD0cRviL7_5bpL00",
    "address": "KOSMONAUTÓW 295",
    "kat": "3",
    "end_date": "02/06/2029"
  },
  {
    "id": 412,
    "lat": 51.1240575,
    "lng": 16.9506109,
    "place_id": "ChIJM432pHjqD0cR2uOm_lwhPeM",
    "address": "KOSZALIŃSKA 4",
    "kat": "3",
    "end_date": "31/12/2029"
  },
  {
    "id": 413,
    "lat": 51.1415618,
    "lng": 17.061956,
    "place_id": "ChIJgS-7ZaXpD0cRzJmBG_gki5Q",
    "address": "KOSZAROWA 32D",
    "kat": "3",
    "end_date": "09/11/2031"
  },
  {
    "id": 414,
    "lat": 51.0987477,
    "lng": 17.0476547,
    "place_id": "ChIJkzStK2PCD0cRtt57Tg6u0Kk",
    "address": "KOŚCIUSZKI 133A ALDI",
    "kat": "3",
    "end_date": "28/10/2030"
  },
  {
    "id": 415,
    "lat": 51.0980329,
    "lng": 17.0541923,
    "place_id": "ChIJV8yn14fCD0cRAWhOFJ6S4do",
    "address": "KOŚCIUSZKI 182 NA MAKSA",
    "kat": "3",
    "end_date": "05/09/2029"
  },
  {
    "id": 416,
    "lat": 51.1026289,
    "lng": 17.0310691,
    "place_id": "ChIJLUI883HCD0cRM0pTyln2f2g",
    "address": "KOŚCIUSZKI 21",
    "kat": "3",
    "end_date": "30/06/2022"
  },
  {
    "id": 417,
    "lat": 51.1113073,
    "lng": 17.0345902,
    "place_id": "ChIJi83ItsnDD0cRGWGVr8HlZQU",
    "address": "KOTLARSKA 43/1A ŻABKA",
    "kat": "3",
    "end_date": "05/07/2031"
  },
  {
    "id": 418,
    "lat": 51.141124,
    "lng": 17.082199,
    "place_id": "ChIJYwcDd1PoD0cR2t6eElOCWsc",
    "address": "KOWALSKA 72",
    "kat": "3",
    "end_date": "09/05/2022"
  },
  {
    "id": 419,
    "lat": 51.1338272,
    "lng": 17.1037887,
    "place_id": "ChIJIY_vS13oD0cRLbyIbe5M1zw",
    "address": "KOWALSKA 80",
    "kat": "3",
    "end_date": "18/06/2031"
  },
  {
    "id": 420,
    "lat": 51.1338272,
    "lng": 17.1037887,
    "place_id": "EidLb3dhbHNrYSA4MC91MywgNTEtNDI0IFdyb2PFgmF3LCBQb2xhbmQiHhocChYKFAoSCSGP70td6A9HES28iG3uTNc8EgJ1Mw",
    "address": "KOWALSKA 80/U3 KASIA",
    "kat": "3",
    "end_date": "09/06/2031"
  },
  {
    "id": 421,
    "lat": 51.1335694,
    "lng": 17.1035797,
    "place_id": "ChIJA4pAy4HpD0cRCI0holdki4Y",
    "address": "KOWALSKA 81A ŻABKA",
    "kat": "3",
    "end_date": "09/09/2031"
  },
  {
    "id": 422,
    "lat": 51.133169,
    "lng": 16.9734885,
    "place_id": "ChIJJfRwdW3qD0cR2-ytTtSXvSo",
    "address": "KOZANOWSKA 2 BIEDRONKA",
    "kat": "3",
    "end_date": "08/02/2032"
  },
  {
    "id": 423,
    "lat": 51.0958441,
    "lng": 17.0548663,
    "place_id": "ChIJzfru54jCD0cRHSF37420EpQ",
    "address": "KRAKOWSKA 1 BIEDRONKA",
    "kat": "3",
    "end_date": "19/08/2022"
  },
  {
    "id": 424,
    "lat": 51.0945839,
    "lng": 17.0578008,
    "place_id": "ChIJHS7w147CD0cRY3AOxMNX0Vw",
    "address": "KRAKOWSKA 11",
    "kat": "3",
    "end_date": "24/07/2030"
  },
  {
    "id": 425,
    "lat": 51.082671,
    "lng": 17.075436,
    "place_id": "ChIJY81hasDCD0cRqxeNawC7y2A",
    "address": "KRAKOWSKA 141-155",
    "kat": "3",
    "end_date": "17/03/2030"
  },
  {
    "id": 426,
    "lat": 51.0817596,
    "lng": 17.0783155,
    "place_id": "ChIJw17L7pjDD0cRtuUKoQV_ehg",
    "address": "KRAKOWSKA 182 GIRO DELI",
    "kat": "2",
    "end_date": "01/03/2030"
  },
  {
    "id": 427,
    "lat": 51.092262,
    "lng": 17.061046,
    "place_id": "ChIJzWnvSsHDD0cR0SXtwIJnvns",
    "address": "KRAKOWSKA 41D ŻABKA",
    "kat": "3",
    "end_date": "22/04/2031"
  },
  {
    "id": 428,
    "lat": 51.0909279,
    "lng": 17.0622635,
    "place_id": "ChIJT21kBpLCD0cRtnC1cKO7ioE",
    "address": "KRAKOWSKA 51-69 EUROSPAR",
    "kat": "3",
    "end_date": "31/10/2030"
  },
  {
    "id": 429,
    "lat": 51.0906828,
    "lng": 17.0631308,
    "place_id": "ChIJT21kBpLCD0cRh8vQHKv1-RU",
    "address": "KRAKOWSKA 51-69 ROSSMANN",
    "kat": "2",
    "end_date": "05/08/2031"
  },
  {
    "id": 430,
    "lat": 51.0955433,
    "lng": 17.0565168,
    "place_id": "ChIJCY5OxYjCD0cRNo-PbvCqOtE",
    "address": "KRAKOWSKA 6/7",
    "kat": "3",
    "end_date": "30/09/2022"
  },
  {
    "id": 431,
    "lat": 51.0920698,
    "lng": 17.0628446,
    "place_id": "ChIJo1NiHI7CD0cR3C18QqTE2i0",
    "address": "KRAKOWSKA 70-80 STACJA PALIW",
    "kat": "3",
    "end_date": "07/09/2022"
  },
  {
    "id": 432,
    "lat": 51.0885605,
    "lng": 17.0657909,
    "place_id": "ChIJteP9rpPCD0cR45xdd5Ok_1Q",
    "address": "KRAKOWSKA 71-105",
    "kat": "3",
    "end_date": "29/05/2031"
  },
  {
    "id": 433,
    "lat": 51.0904887,
    "lng": 17.0647288,
    "place_id": "ChIJd1TtJpLCD0cRdSbU6rImO4M",
    "address": "KRAKOWSKA 96 STACJA PALIW",
    "kat": "3",
    "end_date": "04/12/2031"
  },
  {
    "id": 434,
    "lat": 51.1057913,
    "lng": 17.0433972,
    "place_id": "ChIJSU1IvXnCD0cR0llTd6_hJ3o",
    "address": "KRASIŃSKIEGO 36/1A KRASNAL NR 1",
    "kat": "3",
    "end_date": "13/04/2030"
  },
  {
    "id": 435,
    "lat": 51.1286577,
    "lng": 17.034278,
    "place_id": "Ej5Kw7N6ZWZhIElnbmFjZWdvIEtyYXN6ZXdza2llZ28gMTNBLzF1LCA1MC0yMjkgV3JvY8WCYXcsIFBvbGFuZCIeGhwKFgoUChIJvwyTzuvpD0cRCv-SEy35pOUSAjF1",
    "address": "KRASZEWSKIEGO 13A/1U",
    "kat": "3",
    "end_date": "21/08/2022"
  },
  {
    "id": 436,
    "lat": 51.1287759,
    "lng": 17.0331916,
    "place_id": "ChIJ249WwuvpD0cRD628zhT8CxU",
    "address": "KRASZEWSKIEGO 21",
    "kat": "3",
    "end_date": "06/07/2022"
  },
  {
    "id": 437,
    "lat": 51.108225,
    "lng": 17.037944,
    "place_id": "ChIJy66oAXfCD0cRb8NkfUxKucA",
    "address": "KRAWIECKA 1/1D ŻABKA",
    "kat": "3",
    "end_date": "13/03/2024"
  },
  {
    "id": 438,
    "lat": 51.108763,
    "lng": 17.038124,
    "place_id": "ChIJi2miqnfCD0cRS_Pb5ONuj58",
    "address": "KRAWIECKA 3/3A BIEDRONKA",
    "kat": "3",
    "end_date": "27/02/2032"
  },
  {
    "id": 439,
    "lat": 51.1085052,
    "lng": 17.0374148,
    "place_id": "ChIJfWWkoPXDD0cR-35cPDwlqtE",
    "address": "KRAWIECKA 6/2 NA TERENIE LOBBY BAR MELI CAFE",
    "kat": "2",
    "end_date": "20/03/2029"
  },
  {
    "id": 440,
    "lat": 51.1499831,
    "lng": 16.8620186,
    "place_id": "ChIJ4aDr0dqVD0cRWjSDgXvobSU",
    "address": "KRĘPICKA 42A ŻABKA",
    "kat": "3",
    "end_date": "30/05/2029"
  },
  {
    "id": 441,
    "lat": 51.123551,
    "lng": 17.039842,
    "place_id": "ChIJ75fVHMPpD0cRuJw_vuw845g",
    "address": "KRĘTA 10/U2 I U3 ŻABKA",
    "kat": "3",
    "end_date": "20/07/2031"
  },
  {
    "id": 442,
    "lat": 51.1471098,
    "lng": 16.9404525,
    "place_id": "ChIJ4SWRU43qD0cRYEt7pLS5Z6o",
    "address": "KRÓLEWIECKA 27 LIDL",
    "kat": "3",
    "end_date": "28/05/2022"
  },
  {
    "id": 443,
    "lat": 51.1456053,
    "lng": 16.946853,
    "place_id": "ChIJVbjSuPTqD0cRdOxUsRRnNdY",
    "address": "KRÓLEWIECKA 5/5G RAD DELIKATESY",
    "kat": "3",
    "end_date": "11/05/2031"
  },
  {
    "id": 444,
    "lat": 51.1558841,
    "lng": 16.9226971,
    "place_id": "ChIJX6vL8cPqD0cRDUy28cW6uTU",
    "address": "KRÓLEWIECKA 68 BIEDRONKA",
    "kat": "3",
    "end_date": "06/10/2031"
  },
  {
    "id": 445,
    "lat": 51.1565091,
    "lng": 17.1301468,
    "place_id": "ChIJ5S9Q2wXpD0cRDykwlsyxOP4",
    "address": "KRÓLEWSKA 15",
    "kat": "1",
    "end_date": "22/07/2031"
  },
  {
    "id": 446,
    "lat": 51.1579514,
    "lng": 17.131278,
    "place_id": "ChIJR8oZ75boD0cRHHjWuWjgVVA",
    "address": "KRÓLEWSKA 25A ŻABKA",
    "kat": "3",
    "end_date": "28/05/2030"
  },
  {
    "id": 447,
    "lat": 51.093366,
    "lng": 17.009532,
    "place_id": "ChIJ5axn6qzDD0cRxq_L6IcL9vU",
    "address": "KRUCZA 64/U1 ŻABKA",
    "kat": "3",
    "end_date": "22/04/2023"
  },
  {
    "id": 448,
    "lat": 51.108426,
    "lng": 17.02695,
    "place_id": "ChIJcUvTsHTCD0cR-vjVqrH8aIU",
    "address": "KRUPNICZA 3/1C ŻABKA",
    "kat": "3",
    "end_date": "04/09/2030"
  },
  {
    "id": 449,
    "lat": 51.1081976,
    "lng": 17.026565,
    "place_id": "ChIJSQWMsXTCD0cRNZdOxbaBwQg",
    "address": "KRUPNICZA 7 WINOTEKA L. U. NR 1C",
    "kat": "3",
    "end_date": "31/08/2029"
  },
  {
    "id": 450,
    "lat": 51.113932,
    "lng": 17.009334,
    "place_id": "ChIJyfKuDAfCD0cRPNH647gPxro",
    "address": "KRUSZWICKA 8A",
    "kat": "3",
    "end_date": "15/03/2032"
  },
  {
    "id": 451,
    "lat": 51.0825943,
    "lng": 17.0465471,
    "place_id": "ChIJJUVLfPbCD0cRqLr7BWSnnNk",
    "address": "KRYNICKA 1 BIEDRONKA",
    "kat": "3",
    "end_date": "28/11/2022"
  },
  {
    "id": 452,
    "lat": 51.082479,
    "lng": 17.0465472,
    "place_id": "ChIJvbvQnPbCD0cRILy0AmR3ra0",
    "address": "KRYNICKA 1/3",
    "kat": "3",
    "end_date": "23/11/2031"
  },
  {
    "id": 453,
    "lat": 51.0805896,
    "lng": 17.0474799,
    "place_id": "ChIJLT9D0PbCD0cRr32d0TB3gFA",
    "address": "KRYNICKA 32",
    "kat": "2",
    "end_date": "31/03/2031"
  },
  {
    "id": 454,
    "lat": 51.0798327,
    "lng": 17.0465107,
    "place_id": "ChIJk0TJJffCD0cR0ApxqgkTWdA",
    "address": "KRYNICKA 35 ŻABKA",
    "kat": "3",
    "end_date": "22/03/2030"
  },
  {
    "id": 455,
    "lat": 51.080651,
    "lng": 17.049417,
    "place_id": "ChIJO851OvHCD0cRnuip5UGcaGM",
    "address": "KRYNICKA 50-52 ŻABKA",
    "kat": "3",
    "end_date": "29/05/2029"
  },
  {
    "id": 456,
    "lat": 51.1361035,
    "lng": 16.9266665,
    "place_id": "ChIJ5SuBNprqD0cR1hAH_jprc48",
    "address": "KRYSTYNY I MARIANA BARSKICH 17 ŻABKA",
    "kat": "3",
    "end_date": "07/07/2031"
  },
  {
    "id": 457,
    "lat": 51.1361703,
    "lng": 16.9263809,
    "place_id": "ChIJK2XVt1HrD0cRy-ywFcOdh9s",
    "address": "KRYSTYNY I MARIANA BARSKICH 21/U5 GARAŻ SMAKU",
    "kat": "2",
    "end_date": "03/10/2030"
  },